[{"passengerTraffic":false,"type":"STATION","stationName":"Ahonpää","stationShortCode":"AHO","stationUICCode":1343,"countryCode":"FI","longitude":25.01206612315972,"latitude":64.55181651445501},{"passengerTraffic":false,"type":"STATION","stationName":"Ahvenus","stationShortCode":"AHV","stationUICCode":1000,"countryCode":"FI","longitude":22.49759172636550,"latitude":61.29240704393101},{"passengerTraffic":true,"type":"STOPPING_POINT","stationName":"Ainola","stationShortCode":"AIN","stationUICCode":628,"countryCode":"FI","longitude":25.10200142216575,"latitude":60.45689688035013},{"passengerTraffic":false,"type":"STATION","stationName":"Airaksela","stationShortCode":"ARL","stationUICCode":869,"countryCode":"FI","longitude":27.43111902505162,"latitude":62.72543236346552},{"passengerTraffic":false,"type":"STATION","stationName":"Aittaluoto","stationShortCode":"ATL","stationUICCode":676,"countryCode":"FI","longitude":21.86177787840547,"latitude":61.49968665188184},{"passengerTraffic":false,"type":"STATION","stationName":"Ajos","stationShortCode":"AJO","stationUICCode":767,"countryCode":"FI","longitude":24.52012978671163,"latitude":65.66835550224855},{"passengerTraffic":false,"type":"STATION","stationName":"Alapitkä","stationShortCode":"APT","stationUICCode":415,"countryCode":"FI","longitude":27.53707900999269,"latitude":63.20204657238016},{"passengerTraffic":true,"type":"STATION","stationName":"Alavus","stationShortCode":"ALV","stationUICCode":284,"countryCode":"FI","longitude":23.60032043483237,"latitude":62.61879008105599},{"passengerTraffic":false,"type":"STATION","stationName":"Alholma","stationShortCode":"ALH","stationUICCode":308,"countryCode":"FI","longitude":22.69467280247231,"latitude":63.70825780092783},{"passengerTraffic":false,"type":"STATION","stationName":"Arola","stationShortCode":"ARO","stationUICCode":939,"countryCode":"FI","longitude":29.02496694064145,"latitude":64.45248547335946},{"passengerTraffic":false,"type":"STATION","stationName":"Asola","stationShortCode":"ASO","stationUICCode":1340,"countryCode":"FI","longitude":25.03024327988378,"latitude":60.31843064423007},{"passengerTraffic":true,"type":"STOPPING_POINT","stationName":"Aviapolis","stationShortCode":"AVP","stationUICCode":1331,"countryCode":"FI","longitude":24.94216203376418,"latitude":60.30811424172377},{"passengerTraffic":true,"type":"STATION","stationName":"Dragsvik","stationShortCode":"DRA","stationUICCode":167,"countryCode":"FI","longitude":23.48848277293921,"latitude":59.99018622330809},{"passengerTraffic":false,"type":"TURNOUT_IN_THE_OPEN_LINE","stationName":"Dynamiittivaihde","stationShortCode":"DMV","stationUICCode":581,"countryCode":"FI","longitude":23.08359933969699,"latitude":59.86627534803434},{"passengerTraffic":false,"type":"STATION","stationName":"Elijärvi","stationShortCode":"ELI","stationUICCode":828,"countryCode":"FI","longitude":24.69962851020815,"latitude":65.78020249778906},{"passengerTraffic":true,"type":"STOPPING_POINT","stationName":"Eläinpuisto-Zoo","stationShortCode":"EPZ","stationUICCode":623,"countryCode":"FI","longitude":24.19052147136339,"latitude":62.54196048239192},{"passengerTraffic":true,"type":"STATION","stationName":"Eno","stationShortCode":"ENO","stationUICCode":464,"countryCode":"FI","longitude":30.14446927518290,"latitude":62.80739115925199},{"passengerTraffic":false,"type":"STATION","stationName":"Ervelä","stationShortCode":"ERV","stationUICCode":1004,"countryCode":"FI","longitude":23.23684008687978,"latitude":60.19640857388419},{"passengerTraffic":false,"type":"STATION","stationName":"Eskola","stationShortCode":"ELA","stationUICCode":318,"countryCode":"FI","longitude":24.15153908426580,"latitude":63.91644158720784},{"passengerTraffic":true,"type":"STATION","stationName":"Espoo","stationShortCode":"EPO","stationUICCode":66,"countryCode":"FI","longitude":24.65629604057808,"latitude":60.20510797448899},{"passengerTraffic":true,"type":"STATION","stationName":"Haapajärvi","stationShortCode":"HPJ","stationUICCode":330,"countryCode":"FI","longitude":25.33504397700235,"latitude":63.75598605697383},{"passengerTraffic":false,"type":"STATION","stationName":"Haapakoski","stationShortCode":"HPS","stationUICCode":402,"countryCode":"FI","longitude":27.17690809307523,"latitude":62.45328761967659},{"passengerTraffic":false,"type":"TURNOUT_IN_THE_OPEN_LINE","stationName":"Haapamäen kyllästämö","stationShortCode":"HMK","stationUICCode":1008,"countryCode":"FI","longitude":24.40703249702947,"latitude":62.28168262440615},{"passengerTraffic":true,"type":"STATION","stationName":"Haapamäki","stationShortCode":"HPK","stationUICCode":200,"countryCode":"FI","longitude":24.45538460636615,"latitude":62.24727179744995},{"passengerTraffic":false,"type":"STATION","stationName":"Haaparanta","stationShortCode":"HPA","stationUICCode":1408,"countryCode":"FI","longitude":24.13291337416334,"latitude":65.82145435795326},{"passengerTraffic":true,"type":"STATION","stationName":"Haarajoki","stationShortCode":"HAA","stationUICCode":13,"countryCode":"FI","longitude":25.13432076905867,"latitude":60.49641177527236},{"passengerTraffic":false,"type":"STATION","stationName":"Hakosilta","stationShortCode":"HLT","stationUICCode":1014,"countryCode":"FI","longitude":25.51402437661233,"latitude":60.92535381590911},{"passengerTraffic":true,"type":"STOPPING_POINT","stationName":"Haksi","stationShortCode":"HSI","stationUICCode":1015,"countryCode":"FI","longitude":25.55532971409968,"latitude":60.40832210526497},{"passengerTraffic":false,"type":"STATION","stationName":"Hamina","stationShortCode":"HMA","stationUICCode":527,"countryCode":"FI","longitude":27.16783650796182,"latitude":60.55247144296460},{"passengerTraffic":false,"type":"STATION","stationName":"Hammaslahti","stationShortCode":"HSL","stationUICCode":451,"countryCode":"FI","longitude":29.97102871880105,"latitude":62.43107544376337},{"passengerTraffic":false,"type":"STATION","stationName":"Hanala","stationShortCode":"HNA","stationUICCode":1018,"countryCode":"FI","longitude":25.07295966580457,"latitude":60.33993859848969},{"passengerTraffic":false,"type":"STATION","stationName":"Hangonsaari","stationShortCode":"HGS","stationUICCode":1020,"countryCode":"FI","longitude":21.34387714991838,"latitude":60.79617392909515},{"passengerTraffic":false,"type":"TURNOUT_IN_THE_OPEN_LINE","stationName":"Hanhikoski","stationShortCode":"HNH","stationUICCode":812,"countryCode":"FI","longitude":27.22160403632286,"latitude":66.69845742784194},{"passengerTraffic":true,"type":"STATION","stationName":"Hankasalmi","stationShortCode":"HKS","stationUICCode":427,"countryCode":"FI","longitude":26.47927657389044,"latitude":62.30369081978604},{"passengerTraffic":true,"type":"STATION","stationName":"Hanko asema","stationShortCode":"HNK","stationUICCode":73,"countryCode":"FI","longitude":22.96725680126441,"latitude":59.83216483675099},{"passengerTraffic":false,"type":"STATION","stationName":"Hanko tavara","stationShortCode":"HNKT","stationUICCode":1317,"countryCode":"FI","longitude":22.98042176080038,"latitude":59.83436620251754},{"passengerTraffic":true,"type":"STATION","stationName":"Hanko-Pohjoinen","stationShortCode":"HKP","stationUICCode":879,"countryCode":"FI","longitude":22.98727069275053,"latitude":59.83637355322419},{"passengerTraffic":true,"type":"STATION","stationName":"Harjavalta","stationShortCode":"HVA","stationUICCode":218,"countryCode":"FI","longitude":22.13252955814302,"latitude":61.31018484037882},{"passengerTraffic":false,"type":"STATION","stationName":"Harju","stationShortCode":"HJ","stationUICCode":985,"countryCode":"FI","longitude":26.67843998813478,"latitude":60.94107693584756},{"passengerTraffic":false,"type":"STATION","stationName":"Harviala","stationShortCode":"HRV","stationUICCode":622,"countryCode":"FI","longitude":24.57725468538159,"latitude":60.95399712106228},{"passengerTraffic":false,"type":"STATION","stationName":"Haukipudas","stationShortCode":"HD","stationUICCode":342,"countryCode":"FI","longitude":25.40787000208054,"latitude":65.19769031969672},{"passengerTraffic":true,"type":"STATION","stationName":"Haukivuori","stationShortCode":"HAU","stationUICCode":549,"countryCode":"FI","longitude":27.20404388201361,"latitude":62.02640958971943},{"passengerTraffic":false,"type":"STATION","stationName":"Hausjärvi tavara","stationShortCode":"HAS","stationUICCode":340,"countryCode":"FI","longitude":25.01545239752810,"latitude":60.78568692434850},{"passengerTraffic":false,"type":"STATION","stationName":"Haviseva","stationShortCode":"HVS","stationUICCode":1021,"countryCode":"FI","longitude":24.08747006125013,"latitude":61.55124994091310},{"passengerTraffic":false,"type":"STATION","stationName":"Havukoski","stationShortCode":"HVK","stationUICCode":1334,"countryCode":"FI","longitude":25.05597189296493,"latitude":60.31512705563113},{"passengerTraffic":false,"type":"STATION","stationName":"Heikkilä","stationShortCode":"HEK","stationUICCode":1023,"countryCode":"FI","longitude":24.48120960369043,"latitude":60.12199835293905},{"passengerTraffic":false,"type":"STATION","stationName":"Heinola","stationShortCode":"HA","stationUICCode":113,"countryCode":"FI","longitude":26.04786166338031,"latitude":61.20359854499140},{"passengerTraffic":false,"type":"STATION","stationName":"Heinoo","stationShortCode":"HNO","stationUICCode":1025,"countryCode":"FI","longitude":22.97075787288298,"latitude":61.39478238920749},{"passengerTraffic":false,"type":"STATION","stationName":"Heinävaara","stationShortCode":"HÄV","stationUICCode":924,"countryCode":"FI","longitude":30.19299001662903,"latitude":62.55665670038172},{"passengerTraffic":true,"type":"STATION","stationName":"Heinävesi","stationShortCode":"HNV","stationUICCode":437,"countryCode":"FI","longitude":28.64545928846077,"latitude":62.38341563302244},{"passengerTraffic":true,"type":"STATION","stationName":"Helsinki asema","stationShortCode":"HKI","stationUICCode":1,"countryCode":"FI","longitude":24.94166179681815,"latitude":60.17212991202909},{"passengerTraffic":false,"type":"STATION","stationName":"Helsinki Kivihaka","stationShortCode":"KHK","stationUICCode":1028,"countryCode":"FI","longitude":24.91756603557219,"latitude":60.20987302261171},{"passengerTraffic":true,"type":"STOPPING_POINT","stationName":"Herrala","stationShortCode":"HR","stationUICCode":96,"countryCode":"FI","longitude":25.47627236927306,"latitude":60.89725649134288},{"passengerTraffic":true,"type":"STOPPING_POINT","stationName":"Hiekkaharju","stationShortCode":"HKH","stationUICCode":556,"countryCode":"FI","longitude":25.04968099629360,"latitude":60.30342182032933},{"passengerTraffic":false,"type":"STATION","stationName":"Hiirola","stationShortCode":"HIR","stationUICCode":997,"countryCode":"FI","longitude":27.31729367942504,"latitude":61.80877857245370},{"passengerTraffic":true,"type":"STOPPING_POINT","stationName":"Hikiä","stationShortCode":"HK","stationUICCode":91,"countryCode":"FI","longitude":24.91962463566703,"latitude":60.75284618730815},{"passengerTraffic":false,"type":"STATION","stationName":"Hillosensalmi","stationShortCode":"HLS","stationUICCode":988,"countryCode":"FI","longitude":26.79038817594075,"latitude":61.19346741093003},{"passengerTraffic":true,"type":"STOPPING_POINT","stationName":"Hinthaara","stationShortCode":"HH","stationUICCode":561,"countryCode":"FI","longitude":25.47858083485383,"latitude":60.39987907980552},{"passengerTraffic":false,"type":"STATION","stationName":"Hirvineva","stationShortCode":"HVN","stationUICCode":1041,"countryCode":"FI","longitude":25.22817457766298,"latitude":64.73585011691038},{"passengerTraffic":true,"type":"STATION","stationName":"Humppila","stationShortCode":"HP","stationUICCode":144,"countryCode":"FI","longitude":23.36255340386297,"latitude":60.91984006390076},{"passengerTraffic":true,"type":"STATION","stationName":"Huopalahti","stationShortCode":"HPL","stationUICCode":72,"countryCode":"FI","longitude":24.89386194885081,"latitude":60.21840883796605},{"passengerTraffic":false,"type":"STATION","stationName":"Huutokoski","stationShortCode":"HKO","stationUICCode":430,"countryCode":"FI","longitude":27.69052323766066,"latitude":62.21088693949381},{"passengerTraffic":false,"type":"STATION","stationName":"Hyrynsalmi","stationShortCode":"HYS","stationUICCode":392,"countryCode":"FI","longitude":28.46492225027910,"latitude":64.68555723252238},{"passengerTraffic":true,"type":"STATION","stationName":"Hyvinkää","stationShortCode":"HY","stationUICCode":30,"countryCode":"FI","longitude":24.85784904156818,"latitude":60.63166418620130},{"passengerTraffic":true,"type":"STATION","stationName":"Hämeenlinna","stationShortCode":"HL","stationUICCode":47,"countryCode":"FI","longitude":24.47854305097218,"latitude":61.00298160757058},{"passengerTraffic":false,"type":"STATION","stationName":"Härmä","stationShortCode":"HM","stationUICCode":300,"countryCode":"FI","longitude":22.87621115930091,"latitude":63.23558540430389},{"passengerTraffic":true,"type":"STOPPING_POINT","stationName":"Höljäkkä","stationShortCode":"HÖL","stationUICCode":938,"countryCode":"FI","longitude":29.44666875147690,"latitude":63.45616830469028},{"passengerTraffic":false,"type":"STATION","stationName":"Ii","stationShortCode":"II","stationUICCode":343,"countryCode":"FI","longitude":25.44270114100570,"latitude":65.32091811194132},{"passengerTraffic":false,"type":"TURNOUT_IN_THE_OPEN_LINE","stationName":"Iisalmen teollisuusraiteet","stationShortCode":"ITR","stationUICCode":1049,"countryCode":"FI","longitude":27.21546333479710,"latitude":63.54711893952674},{"passengerTraffic":true,"type":"STATION","stationName":"Iisalmi","stationShortCode":"ILM","stationUICCode":420,"countryCode":"FI","longitude":27.20262818577507,"latitude":63.56147907566565},{"passengerTraffic":true,"type":"STOPPING_POINT","stationName":"Iittala","stationShortCode":"ITA","stationUICCode":154,"countryCode":"FI","longitude":24.14094199139784,"latitude":61.09097851527910},{"passengerTraffic":true,"type":"STATION","stationName":"Ilmala asema","stationShortCode":"ILA","stationUICCode":9,"countryCode":"FI","longitude":24.92099334118110,"latitude":60.20819328050915},{"passengerTraffic":false,"type":"STATION","stationName":"Ilmala ratapiha","stationShortCode":"ILR","stationUICCode":1030,"countryCode":"FI","longitude":24.93014952341400,"latitude":60.21182151416686},{"passengerTraffic":false,"type":"STATION","stationName":"Ilomantsi","stationShortCode":"ILO","stationUICCode":459,"countryCode":"FI","longitude":30.94467768150604,"latitude":62.66731831276622},{"passengerTraffic":true,"type":"STATION","stationName":"Imatra asema","stationShortCode":"IMR","stationUICCode":603,"countryCode":"FI","longitude":28.77835360228254,"latitude":61.19643095438538},{"passengerTraffic":false,"type":"STATION","stationName":"Imatra tavara","stationShortCode":"IMT","stationUICCode":502,"countryCode":"FI","longitude":28.81409954121636,"latitude":61.20836735174136},{"passengerTraffic":false,"type":"STATION","stationName":"Imatrankoski","stationShortCode":"IMK","stationUICCode":504,"countryCode":"FI","longitude":28.79009343427306,"latitude":61.17080901475640},{"passengerTraffic":false,"type":"STATION","stationName":"Imatrankoski-raja","stationShortCode":"IMKR","stationUICCode":503,"countryCode":"FI","longitude":28.83384481060680,"latitude":61.12533155517130},{"passengerTraffic":false,"type":"TURNOUT_IN_THE_OPEN_LINE","stationName":"Inha","stationShortCode":"IN","stationUICCode":264,"countryCode":"FI","longitude":24.14619115619179,"latitude":62.55169706341911},{"passengerTraffic":true,"type":"STATION","stationName":"Inkeroinen","stationShortCode":"IKR","stationUICCode":530,"countryCode":"FI","longitude":26.84018370080148,"latitude":60.69701604632928},{"passengerTraffic":true,"type":"STATION","stationName":"Inkoo","stationShortCode":"IKO","stationUICCode":62,"countryCode":"FI","longitude":23.93583299884374,"latitude":60.06150188518101},{"passengerTraffic":false,"type":"TURNOUT_IN_THE_OPEN_LINE","stationName":"Isokangas","stationShortCode":"ISG","stationUICCode":1060,"countryCode":"FI","longitude":23.10801656348080,"latitude":62.08508107550729},{"passengerTraffic":false,"type":"STATION","stationName":"Isokylä","stationShortCode":"IKÄ","stationUICCode":813,"countryCode":"FI","longitude":27.53591316092887,"latitude":66.71409185204243},{"passengerTraffic":true,"type":"STATION","stationName":"Isokyrö","stationShortCode":"IKY","stationUICCode":295,"countryCode":"FI","longitude":22.39416022094283,"latitude":62.95222967261050},{"passengerTraffic":false,"type":"STATION","stationName":"Jalasjärvi","stationShortCode":"JAL","stationUICCode":276,"countryCode":"FI","longitude":22.95387505019253,"latitude":62.47355670432422},{"passengerTraffic":false,"type":"STATION","stationName":"Jepua","stationShortCode":"JPA","stationUICCode":303,"countryCode":"FI","longitude":22.65474744774662,"latitude":63.40972426846452},{"passengerTraffic":true,"type":"STATION","stationName":"Joensuu asema","stationShortCode":"JNS","stationUICCode":460,"countryCode":"FI","longitude":29.77963440728452,"latitude":62.60047281314301},{"passengerTraffic":false,"type":"STATION","stationName":"Joensuu Peltola","stationShortCode":"PLT","stationUICCode":1070,"countryCode":"FI","longitude":29.77433048358171,"latitude":62.59438956472729},{"passengerTraffic":false,"type":"STATION","stationName":"Joensuu Sulkulahti","stationShortCode":"SUL","stationUICCode":1071,"countryCode":"FI","longitude":29.77797090639793,"latitude":62.58663780661349},{"passengerTraffic":true,"type":"STATION","stationName":"Jokela","stationShortCode":"JK","stationUICCode":28,"countryCode":"FI","longitude":24.97099545231932,"latitude":60.55302681210605},{"passengerTraffic":false,"type":"TURNOUT_IN_THE_OPEN_LINE","stationName":"Joroinen","stationShortCode":"JOR","stationUICCode":431,"countryCode":"FI","longitude":27.81039475605781,"latitude":62.17558778915453},{"passengerTraffic":true,"type":"STOPPING_POINT","stationName":"Jorvas","stationShortCode":"JRS","stationUICCode":578,"countryCode":"FI","longitude":24.51302674858426,"latitude":60.13790771536286},{"passengerTraffic":true,"type":"STATION","stationName":"Joutseno","stationShortCode":"JTS","stationUICCode":499,"countryCode":"FI","longitude":28.49016307128143,"latitude":61.12065627497296},{"passengerTraffic":false,"type":"STATION","stationName":"Juankoski","stationShortCode":"JKI","stationUICCode":414,"countryCode":"FI","longitude":28.32006489175433,"latitude":63.06433084678584},{"passengerTraffic":false,"type":"STATION","stationName":"Jutila","stationShortCode":"JUT","stationUICCode":1085,"countryCode":"FI","longitude":25.12415858857381,"latitude":60.83742510797484},{"passengerTraffic":true,"type":"STOPPING_POINT","stationName":"Juupajoki","stationShortCode":"JJ","stationUICCode":627,"countryCode":"FI","longitude":24.36525271438556,"latitude":61.79747493174501},{"passengerTraffic":false,"type":"STATION","stationName":"Juurikorpi","stationShortCode":"JRI","stationUICCode":535,"countryCode":"FI","longitude":26.93927734422790,"latitude":60.60439580505677},{"passengerTraffic":true,"type":"STATION","stationName":"Jyväskylä","stationShortCode":"JY","stationUICCode":240,"countryCode":"FI","longitude":25.75235847120801,"latitude":62.24072261918303},{"passengerTraffic":true,"type":"STATION","stationName":"Jämsä","stationShortCode":"JÄS","stationUICCode":204,"countryCode":"FI","longitude":25.17384101564176,"latitude":61.86633502042542},{"passengerTraffic":false,"type":"STATION","stationName":"Jämsänkoski","stationShortCode":"JSK","stationUICCode":205,"countryCode":"FI","longitude":25.17179394382047,"latitude":61.89684634175717},{"passengerTraffic":true,"type":"STATION","stationName":"Järvelä","stationShortCode":"JR","stationUICCode":95,"countryCode":"FI","longitude":25.27523233784601,"latitude":60.86762887646247},{"passengerTraffic":true,"type":"STATION","stationName":"Järvenpää asema","stationShortCode":"JP","stationUICCode":25,"countryCode":"FI","longitude":25.09133535334629,"latitude":60.47379087798299},{"passengerTraffic":false,"type":"STATION","stationName":"Kaipiainen","stationShortCode":"KPA","stationUICCode":485,"countryCode":"FI","longitude":27.11904888060521,"latitude":60.90043236020716},{"passengerTraffic":false,"type":"STATION","stationName":"Kaipola","stationShortCode":"KLA","stationUICCode":656,"countryCode":"FI","longitude":25.21528854605504,"latitude":61.81736776276298},{"passengerTraffic":false,"type":"TURNOUT_IN_THE_OPEN_LINE","stationName":"Kairokoski","stationShortCode":"KKO","stationUICCode":230,"countryCode":"FI","longitude":23.02155058186636,"latitude":62.02791167266118},{"passengerTraffic":false,"type":"STATION","stationName":"Kaitjärvi","stationShortCode":"KJR","stationUICCode":944,"countryCode":"FI","longitude":27.34773428210156,"latitude":60.91106100661052},{"passengerTraffic":true,"type":"STATION","stationName":"Kajaani","stationShortCode":"KAJ","stationUICCode":387,"countryCode":"FI","longitude":27.74037535201143,"latitude":64.22134818565351},{"passengerTraffic":false,"type":"TURNOUT_IN_THE_OPEN_LINE","stationName":"Kaleton","stationShortCode":"KTN","stationUICCode":697,"countryCode":"FI","longitude":24.79206054663305,"latitude":62.24054602296814},{"passengerTraffic":false,"type":"STATION","stationName":"Kalkku","stationShortCode":"KAU","stationUICCode":639,"countryCode":"FI","longitude":23.57219626978230,"latitude":61.49711412022786},{"passengerTraffic":false,"type":"TURNOUT_IN_THE_OPEN_LINE","stationName":"Kalliovarasto","stationShortCode":"KAO","stationUICCode":1090,"countryCode":"FI","longitude":27.91110471746451,"latitude":64.28280035833569},{"passengerTraffic":false,"type":"TURNOUT_IN_THE_OPEN_LINE","stationName":"Kallislahti","stationShortCode":"KLL","stationUICCode":523,"countryCode":"FI","longitude":28.60405685664058,"latitude":61.91245352795607},{"passengerTraffic":false,"type":"STATION","stationName":"Kalvitsa","stationShortCode":"KSA","stationUICCode":548,"countryCode":"FI","longitude":27.28660153609663,"latitude":61.91129854301929},{"passengerTraffic":false,"type":"STATION","stationName":"Kangas","stationShortCode":"KGS","stationUICCode":1092,"countryCode":"FI","longitude":24.71318082015248,"latitude":64.14524752792360},{"passengerTraffic":true,"type":"STATION","stationName":"Kannelmäki","stationShortCode":"KAN","stationUICCode":658,"countryCode":"FI","longitude":24.87739793585336,"latitude":60.23961351888685},{"passengerTraffic":false,"type":"STATION","stationName":"Kannonkoski","stationShortCode":"KSI","stationUICCode":256,"countryCode":"FI","longitude":25.27125926101950,"latitude":62.98508561335496},{"passengerTraffic":true,"type":"STATION","stationName":"Kannus","stationShortCode":"KNS","stationUICCode":317,"countryCode":"FI","longitude":23.91541663239650,"latitude":63.89996199297379},{"passengerTraffic":false,"type":"STATION","stationName":"Karhejärvi","stationShortCode":"KRR","stationUICCode":1095,"countryCode":"FI","longitude":23.39008203418306,"latitude":61.75073773124134},{"passengerTraffic":false,"type":"STATION","stationName":"Karhukangas","stationShortCode":"KHG","stationUICCode":1097,"countryCode":"FI","longitude":24.41955968385706,"latitude":64.01721603616201},{"passengerTraffic":true,"type":"STATION","stationName":"Karjaa","stationShortCode":"KR","stationUICCode":60,"countryCode":"FI","longitude":23.66134230649959,"latitude":60.06879796731013},{"passengerTraffic":true,"type":"STATION","stationName":"Karkku","stationShortCode":"KRU","stationUICCode":178,"countryCode":"FI","longitude":23.04877799267037,"latitude":61.44386093879866},{"passengerTraffic":false,"type":"STATION","stationName":"Karviainen","stationShortCode":"KAR","stationUICCode":1100,"countryCode":"FI","longitude":22.55835578821354,"latitude":60.62359795420021},{"passengerTraffic":false,"type":"STATION","stationName":"Kaskinen","stationShortCode":"KSK","stationUICCode":267,"countryCode":"FI","longitude":21.22882601423909,"latitude":62.38197641588358},{"passengerTraffic":false,"type":"STATION","stationName":"Kattilaharju","stationShortCode":"KTH","stationUICCode":1319,"countryCode":"FI","longitude":26.96096817306100,"latitude":60.88042236735897},{"passengerTraffic":false,"type":"STATION","stationName":"Kauhajoki","stationShortCode":"KJI","stationUICCode":272,"countryCode":"FI","longitude":22.21089761272175,"latitude":62.46088306172434},{"passengerTraffic":true,"type":"STATION","stationName":"Kauhava","stationShortCode":"KHA","stationUICCode":299,"countryCode":"FI","longitude":23.03493667643516,"latitude":63.10085528128960},{"passengerTraffic":true,"type":"STATION","stationName":"Kauklahti asema","stationShortCode":"KLH","stationUICCode":65,"countryCode":"FI","longitude":24.60062224024251,"latitude":60.18948776635573},{"passengerTraffic":false,"type":"STATION","stationName":"Kaulinranta","stationShortCode":"KLR","stationUICCode":790,"countryCode":"FI","longitude":23.71263246959641,"latitude":66.46942384609078},{"passengerTraffic":true,"type":"STATION","stationName":"Kauniainen","stationShortCode":"KNI","stationUICCode":67,"countryCode":"FI","longitude":24.73120572048259,"latitude":60.21198020687413},{"passengerTraffic":false,"type":"STATION","stationName":"Kauppilanmäki","stationShortCode":"KPL","stationUICCode":423,"countryCode":"FI","longitude":27.22941672651078,"latitude":63.71100812797515},{"passengerTraffic":true,"type":"STOPPING_POINT","stationName":"Kausala","stationShortCode":"KA","stationUICCode":477,"countryCode":"FI","longitude":26.33057662511227,"latitude":60.88562227428591},{"passengerTraffic":false,"type":"STATION","stationName":"Keitelepohja","stationShortCode":"KTP","stationUICCode":257,"countryCode":"FI","longitude":25.54874296554351,"latitude":63.19400137780445},{"passengerTraffic":false,"type":"STATION","stationName":"Kekomäki","stationShortCode":"KEK","stationUICCode":1101,"countryCode":"FI","longitude":24.91241733896265,"latitude":60.75078525262875},{"passengerTraffic":true,"type":"STATION","stationName":"Kemi","stationShortCode":"KEM","stationUICCode":347,"countryCode":"FI","longitude":24.57476523121654,"latitude":65.73897044660536},{"passengerTraffic":true,"type":"STATION","stationName":"Kemijärvi","stationShortCode":"KJÄ","stationUICCode":367,"countryCode":"FI","longitude":27.40557248529874,"latitude":66.72691481590206},{"passengerTraffic":false,"type":"STATION","stationName":"Kempele","stationShortCode":"KML","stationUICCode":769,"countryCode":"FI","longitude":25.51536969941943,"latitude":64.91483255737397},{"passengerTraffic":true,"type":"STOPPING_POINT","stationName":"Kera","stationShortCode":"KEA","stationUICCode":621,"countryCode":"FI","longitude":24.75597983344263,"latitude":60.21661454706508},{"passengerTraffic":true,"type":"STATION","stationName":"Kerava asema","stationShortCode":"KE","stationUICCode":20,"countryCode":"FI","longitude":25.10650923336211,"latitude":60.40445695324774},{"passengerTraffic":true,"type":"STATION","stationName":"Kerimäki","stationShortCode":"KIÄ","stationUICCode":522,"countryCode":"FI","longitude":29.11630332487318,"latitude":61.86205939170382},{"passengerTraffic":true,"type":"STATION","stationName":"Kesälahti","stationShortCode":"KTI","stationUICCode":966,"countryCode":"FI","longitude":29.80539917459317,"latitude":61.88811556310208},{"passengerTraffic":true,"type":"STATION","stationName":"Keuruu","stationShortCode":"KEU","stationUICCode":235,"countryCode":"FI","longitude":24.70768314163287,"latitude":62.25617730257416},{"passengerTraffic":false,"type":"STATION","stationName":"Kihniö","stationShortCode":"KIÖ","stationUICCode":231,"countryCode":"FI","longitude":23.28992563289528,"latitude":62.15022009064879},{"passengerTraffic":true,"type":"STOPPING_POINT","stationName":"Kiiala","stationShortCode":"KIA","stationUICCode":1113,"countryCode":"FI","longitude":25.61388941766215,"latitude":60.40683412066142},{"passengerTraffic":true,"type":"STOPPING_POINT","stationName":"Kilo","stationShortCode":"KIL","stationUICCode":580,"countryCode":"FI","longitude":24.78275092806289,"latitude":60.21798104629620},{"passengerTraffic":false,"type":"STATION","stationName":"Kilpua","stationShortCode":"KUA","stationUICCode":1115,"countryCode":"FI","longitude":24.96207077708021,"latitude":64.34827990034559},{"passengerTraffic":false,"type":"TURNOUT_IN_THE_OPEN_LINE","stationName":"Kinahmi","stationShortCode":"KNH","stationUICCode":873,"countryCode":"FI","longitude":27.95324277486605,"latitude":63.14392810143679},{"passengerTraffic":false,"type":"STATION","stationName":"Kinni","stationShortCode":"KII","stationUICCode":1120,"countryCode":"FI","longitude":26.84795585686993,"latitude":61.30678755283122},{"passengerTraffic":false,"type":"TURNOUT_IN_THE_OPEN_LINE","stationName":"Kirjola","stationShortCode":"KIJ","stationUICCode":1123,"countryCode":"FI","longitude":29.44384142790833,"latitude":61.52945920699682},{"passengerTraffic":true,"type":"STATION","stationName":"Kirkkonummi","stationShortCode":"KKN","stationUICCode":63,"countryCode":"FI","longitude":24.43921008018712,"latitude":60.11964712190518},{"passengerTraffic":false,"type":"STATION","stationName":"Kirkniemi","stationShortCode":"KRN","stationUICCode":79,"countryCode":"FI","longitude":23.96357557842675,"latitude":60.17589817699424},{"passengerTraffic":true,"type":"STATION","stationName":"Kitee","stationShortCode":"KIT","stationUICCode":453,"countryCode":"FI","longitude":30.05176705131929,"latitude":62.14361201480745},{"passengerTraffic":false,"type":"STATION","stationName":"Kiukainen","stationShortCode":"KN","stationUICCode":169,"countryCode":"FI","longitude":22.08847560827543,"latitude":61.21011403109094},{"passengerTraffic":true,"type":"STATION","stationName":"Kiuruvesi","stationShortCode":"KRV","stationUICCode":417,"countryCode":"FI","longitude":26.61260659303929,"latitude":63.64231983081709},{"passengerTraffic":false,"type":"STATION","stationName":"Kivesjärvi","stationShortCode":"KVJ","stationUICCode":378,"countryCode":"FI","longitude":27.47317861999460,"latitude":64.47059186627925},{"passengerTraffic":true,"type":"STOPPING_POINT","stationName":"Kivistö","stationShortCode":"KTÖ","stationUICCode":1330,"countryCode":"FI","longitude":24.86410617265545,"latitude":60.31137344814794},{"passengerTraffic":true,"type":"STOPPING_POINT","stationName":"Kohtavaara","stationShortCode":"KOH","stationUICCode":848,"countryCode":"FI","longitude":29.28673891969713,"latitude":63.51645026610650},{"passengerTraffic":false,"type":"STATION","stationName":"Koivu","stationShortCode":"KVU","stationUICCode":362,"countryCode":"FI","longitude":25.20753268822224,"latitude":66.17224134065241},{"passengerTraffic":true,"type":"STOPPING_POINT","stationName":"Koivuhovi","stationShortCode":"KVH","stationUICCode":675,"countryCode":"FI","longitude":24.70159450182923,"latitude":60.20718552839824},{"passengerTraffic":true,"type":"STOPPING_POINT","stationName":"Koivukylä","stationShortCode":"KVY","stationUICCode":559,"countryCode":"FI","longitude":25.06048421779855,"latitude":60.32360859981147},{"passengerTraffic":true,"type":"STATION","stationName":"Kokemäki","stationShortCode":"KKI","stationUICCode":170,"countryCode":"FI","longitude":22.30268160200370,"latitude":61.25467096622639},{"passengerTraffic":true,"type":"STATION","stationName":"Kokkola","stationShortCode":"KOK","stationUICCode":312,"countryCode":"FI","longitude":23.13078672933115,"latitude":63.83593954203648},{"passengerTraffic":true,"type":"STATION","stationName":"Kolari","stationShortCode":"KLI","stationUICCode":358,"countryCode":"FI","longitude":23.83628817269093,"latitude":67.35161591212001},{"passengerTraffic":true,"type":"STOPPING_POINT","stationName":"Kolho","stationShortCode":"KLO","stationUICCode":199,"countryCode":"FI","longitude":24.50772211471851,"latitude":62.12886256051660},{"passengerTraffic":false,"type":"STATION","stationName":"Kolppi","stationShortCode":"KPI","stationUICCode":309,"countryCode":"FI","longitude":22.89789040539286,"latitude":63.62898658540891},{"passengerTraffic":false,"type":"STATION","stationName":"Kommila","stationShortCode":"KMM","stationUICCode":500,"countryCode":"FI","longitude":27.89274114066142,"latitude":62.32463645652498},{"passengerTraffic":false,"type":"TURNOUT_IN_THE_OPEN_LINE","stationName":"Komu","stationShortCode":"KOM","stationUICCode":758,"countryCode":"FI","longitude":26.15500057368049,"latitude":63.66495988082917},{"passengerTraffic":false,"type":"STATION","stationName":"Kontiolahti","stationShortCode":"KHI","stationUICCode":463,"countryCode":"FI","longitude":29.85967950521166,"latitude":62.73324223115635},{"passengerTraffic":true,"type":"STATION","stationName":"Kontiomäki","stationShortCode":"KON","stationUICCode":390,"countryCode":"FI","longitude":28.11670754773506,"latitude":64.33989101874006},{"passengerTraffic":true,"type":"STOPPING_POINT","stationName":"Koria","stationShortCode":"KRA","stationUICCode":478,"countryCode":"FI","longitude":26.60336240008018,"latitude":60.84772840643717},{"passengerTraffic":false,"type":"STATION","stationName":"Korkeakoski","stationShortCode":"KAS","stationUICCode":193,"countryCode":"FI","longitude":24.37567120382678,"latitude":61.80837213959116},{"passengerTraffic":true,"type":"STOPPING_POINT","stationName":"Korso","stationShortCode":"KRS","stationUICCode":19,"countryCode":"FI","longitude":25.07870342594170,"latitude":60.35103286991372},{"passengerTraffic":false,"type":"STATION","stationName":"Korvensuo","stationShortCode":"KSU","stationUICCode":1128,"countryCode":"FI","longitude":25.21873145046394,"latitude":60.58287377482461},{"passengerTraffic":false,"type":"STATION","stationName":"Koskenkorva","stationShortCode":"KOS","stationUICCode":274,"countryCode":"FI","longitude":22.46178150868754,"latitude":62.68907851431408},{"passengerTraffic":true,"type":"STATION","stationName":"Kotka asema","stationShortCode":"KTA","stationUICCode":532,"countryCode":"FI","longitude":26.92984678109293,"latitude":60.46450557258147},{"passengerTraffic":false,"type":"STATION","stationName":"Kotka Hovinsaari","stationShortCode":"HOS","stationUICCode":980,"countryCode":"FI","longitude":26.92049106601594,"latitude":60.48314891890547},{"passengerTraffic":false,"type":"STATION","stationName":"Kotka Mussalo","stationShortCode":"MSS","stationUICCode":557,"countryCode":"FI","longitude":26.89872662982691,"latitude":60.43191099938291},{"passengerTraffic":false,"type":"STATION","stationName":"Kotka tavara","stationShortCode":"KTT","stationUICCode":1130,"countryCode":"FI","longitude":26.92359398972364,"latitude":60.47893976347156},{"passengerTraffic":true,"type":"STATION","stationName":"Kotkan satama","stationShortCode":"KTS","stationUICCode":644,"countryCode":"FI","longitude":26.94149491892379,"latitude":60.46878501818759},{"passengerTraffic":false,"type":"STATION","stationName":"Kotolahti","stationShortCode":"KOO","stationUICCode":1329,"countryCode":"FI","longitude":26.90189259567891,"latitude":60.43623211122635},{"passengerTraffic":true,"type":"STATION","stationName":"Kouvola asema","stationShortCode":"KV","stationUICCode":480,"countryCode":"FI","longitude":26.70572727642460,"latitude":60.86590282989928},{"passengerTraffic":false,"type":"STATION","stationName":"Kouvola lajittelu","stationShortCode":"KVLA","stationUICCode":1132,"countryCode":"FI","longitude":26.72479597626764,"latitude":60.86871743906324},{"passengerTraffic":false,"type":"STATION","stationName":"Kouvola Oikoraide","stationShortCode":"OIK","stationUICCode":1133,"countryCode":"FI","longitude":26.75956150939643,"latitude":60.86855063761723},{"passengerTraffic":false,"type":"STATION","stationName":"Kouvola tavara","stationShortCode":"KVT","stationUICCode":1134,"countryCode":"FI","longitude":26.75305728557720,"latitude":60.87150163644022},{"passengerTraffic":false,"type":"STATION","stationName":"Kovjoki","stationShortCode":"KOI","stationUICCode":745,"countryCode":"FI","longitude":22.69198932987034,"latitude":63.52260800357343},{"passengerTraffic":false,"type":"STATION","stationName":"Kruunupyy","stationShortCode":"KPY","stationUICCode":311,"countryCode":"FI","longitude":23.03369821640903,"latitude":63.72306464679776},{"passengerTraffic":false,"type":"STATION","stationName":"Kuivasjärvi","stationShortCode":"KIS","stationUICCode":1137,"countryCode":"FI","longitude":23.03605147926125,"latitude":62.17530111188939},{"passengerTraffic":false,"type":"STATION","stationName":"Kullasvaara","stationShortCode":"KUV","stationUICCode":1320,"countryCode":"FI","longitude":26.81118666088797,"latitude":60.87257439165800},{"passengerTraffic":true,"type":"STATION","stationName":"Kuopio asema","stationShortCode":"KUO","stationUICCode":408,"countryCode":"FI","longitude":27.68123923073535,"latitude":62.89831408501909},{"passengerTraffic":false,"type":"STATION","stationName":"Kuopio tavara","stationShortCode":"KUOT","stationUICCode":1139,"countryCode":"FI","longitude":27.69896006224612,"latitude":62.89888263355703},{"passengerTraffic":true,"type":"STATION","stationName":"Kupittaa","stationShortCode":"KUT","stationUICCode":126,"countryCode":"FI","longitude":22.29653675868514,"latitude":60.45036152483885},{"passengerTraffic":false,"type":"STATION","stationName":"Kurkimäki","stationShortCode":"KRM","stationUICCode":406,"countryCode":"FI","longitude":27.51924593762334,"latitude":62.77293048909505},{"passengerTraffic":false,"type":"STATION","stationName":"Kuurila","stationShortCode":"KU","stationUICCode":626,"countryCode":"FI","longitude":23.99481945841525,"latitude":61.13418338244374},{"passengerTraffic":false,"type":"STATION","stationName":"Kuusankoski","stationShortCode":"KUK","stationUICCode":537,"countryCode":"FI","longitude":26.65739187305143,"latitude":60.92132714225485},{"passengerTraffic":true,"type":"STOPPING_POINT","stationName":"Kylänlahti","stationShortCode":"KYN","stationUICCode":937,"countryCode":"FI","longitude":29.75427666404452,"latitude":63.36264224942422},{"passengerTraffic":true,"type":"STATION","stationName":"Kymi","stationShortCode":"KY","stationUICCode":534,"countryCode":"FI","longitude":26.90821508725113,"latitude":60.53927506908051},{"passengerTraffic":true,"type":"STOPPING_POINT","stationName":"Kyminlinna","stationShortCode":"KLN","stationUICCode":981,"countryCode":"FI","longitude":26.89677619389412,"latitude":60.50848822892929},{"passengerTraffic":false,"type":"STATION","stationName":"Kyrö","stationShortCode":"KÖ","stationUICCode":139,"countryCode":"FI","longitude":22.74842452285232,"latitude":60.70297189775447},{"passengerTraffic":false,"type":"STATION","stationName":"Kytömaa","stationShortCode":"KYT","stationUICCode":1111,"countryCode":"FI","longitude":25.11046187442047,"latitude":60.42583446765182},{"passengerTraffic":false,"type":"STATION","stationName":"Kälviä","stationShortCode":"KLV","stationUICCode":316,"countryCode":"FI","longitude":23.45190233477736,"latitude":63.85979347241314},{"passengerTraffic":true,"type":"STATION","stationName":"Käpylä","stationShortCode":"KÄP","stationUICCode":977,"countryCode":"FI","longitude":24.96013552873094,"latitude":60.22306436922998},{"passengerTraffic":false,"type":"STATION","stationName":"Köykkäri","stationShortCode":"KÖK","stationUICCode":1144,"countryCode":"FI","longitude":22.77186204438211,"latitude":63.34511142469067},{"passengerTraffic":false,"type":"STATION","stationName":"Laajavuori","stationShortCode":"LAV","stationUICCode":1341,"countryCode":"FI","longitude":24.84874915844115,"latitude":60.28417948199126},{"passengerTraffic":false,"type":"STATION","stationName":"Lahdenperä","stationShortCode":"LPR","stationUICCode":1149,"countryCode":"FI","longitude":24.94519861958613,"latitude":61.81247070453577},{"passengerTraffic":false,"type":"STATION","stationName":"Lahnaslampi","stationShortCode":"LHN","stationUICCode":871,"countryCode":"FI","longitude":28.07399674462340,"latitude":64.12224125428143},{"passengerTraffic":true,"type":"STATION","stationName":"Lahti","stationShortCode":"LH","stationUICCode":100,"countryCode":"FI","longitude":25.65799205686280,"latitude":60.97681717780420},{"passengerTraffic":true,"type":"STATION","stationName":"Laihia","stationShortCode":"LAI","stationUICCode":293,"countryCode":"FI","longitude":22.00263097949812,"latitude":62.99130537931087},{"passengerTraffic":false,"type":"STATION","stationName":"Lakiala","stationShortCode":"LAK","stationUICCode":212,"countryCode":"FI","longitude":23.52682033536459,"latitude":61.62648934140056},{"passengerTraffic":false,"type":"STATION","stationName":"Lamminkoski","stationShortCode":"LMK","stationUICCode":1151,"countryCode":"FI","longitude":23.06089874736720,"latitude":62.10853495570308},{"passengerTraffic":false,"type":"STATION","stationName":"Lamminniemi","stationShortCode":"LAM","stationUICCode":845,"countryCode":"FI","longitude":27.67804934984065,"latitude":64.23547983978702},{"passengerTraffic":false,"type":"STATION","stationName":"Lapinjärvi","stationShortCode":"LPJ","stationUICCode":108,"countryCode":"FI","longitude":26.12876407579433,"latitude":60.59928245968143},{"passengerTraffic":true,"type":"STATION","stationName":"Lapinlahti","stationShortCode":"LNA","stationUICCode":416,"countryCode":"FI","longitude":27.39516906372754,"latitude":63.36195362113283},{"passengerTraffic":false,"type":"TURNOUT_IN_THE_OPEN_LINE","stationName":"Lapinneva","stationShortCode":"LPN","stationUICCode":683,"countryCode":"FI","longitude":22.93483082381470,"latitude":61.98131682595670},{"passengerTraffic":true,"type":"STATION","stationName":"Lappeenranta","stationShortCode":"LR","stationUICCode":495,"countryCode":"FI","longitude":28.19651329263493,"latitude":61.04812377957047},{"passengerTraffic":true,"type":"STOPPING_POINT","stationName":"Lappila","stationShortCode":"LAA","stationUICCode":94,"countryCode":"FI","longitude":25.17476584002261,"latitude":60.84924882865499},{"passengerTraffic":true,"type":"STATION","stationName":"Lappohja","stationShortCode":"LPO","stationUICCode":75,"countryCode":"FI","longitude":23.23648281334294,"latitude":59.90397958993631},{"passengerTraffic":true,"type":"STATION","stationName":"Lapua","stationShortCode":"LPA","stationUICCode":298,"countryCode":"FI","longitude":23.01475611687224,"latitude":62.97249654548296},{"passengerTraffic":false,"type":"STATION","stationName":"Larvakytö","stationShortCode":"LYÖ","stationUICCode":1153,"countryCode":"FI","longitude":22.93551221040336,"latitude":62.68126741726839},{"passengerTraffic":false,"type":"STATION","stationName":"Laukaa","stationShortCode":"LAU","stationUICCode":249,"countryCode":"FI","longitude":25.92523974747402,"latitude":62.42362197439630},{"passengerTraffic":false,"type":"STATION","stationName":"Laurila","stationShortCode":"LLA","stationUICCode":360,"countryCode":"FI","longitude":24.53461454860470,"latitude":65.79905940864350},{"passengerTraffic":false,"type":"STATION","stationName":"Lauritsala","stationShortCode":"LRS","stationUICCode":498,"countryCode":"FI","longitude":28.26144213577885,"latitude":61.06675684363730},{"passengerTraffic":false,"type":"STATION","stationName":"Lautiosaari","stationShortCode":"LI","stationUICCode":829,"countryCode":"FI","longitude":24.56557587877036,"latitude":65.78136741800272},{"passengerTraffic":true,"type":"STOPPING_POINT","stationName":"Leinelä","stationShortCode":"LNÄ","stationUICCode":1333,"countryCode":"FI","longitude":25.01390623625812,"latitude":60.31908567702060},{"passengerTraffic":false,"type":"STATION","stationName":"Lelkola","stationShortCode":"LKL","stationUICCode":993,"countryCode":"FI","longitude":26.96781166304919,"latitude":61.52729870524506},{"passengerTraffic":true,"type":"STATION","stationName":"Lempäälä","stationShortCode":"LPÄ","stationUICCode":156,"countryCode":"FI","longitude":23.75503722582382,"latitude":61.31477998607919},{"passengerTraffic":true,"type":"STOPPING_POINT","stationName":"Lentoasema","stationShortCode":"LEN","stationUICCode":1332,"countryCode":"FI","longitude":24.98501470519679,"latitude":60.31775263809283},{"passengerTraffic":false,"type":"STATION","stationName":"Leppäkoski","stationShortCode":"LK","stationUICCode":43,"countryCode":"FI","longitude":24.69613419345947,"latitude":60.87324323516955},{"passengerTraffic":true,"type":"STATION","stationName":"Leppävaara","stationShortCode":"LPV","stationUICCode":68,"countryCode":"FI","longitude":24.81382750533627,"latitude":60.21952094291206},{"passengerTraffic":false,"type":"STATION","stationName":"Leteensuo","stationShortCode":"LTS","stationUICCode":1154,"countryCode":"FI","longitude":24.23288585109083,"latitude":61.06582643905312},{"passengerTraffic":true,"type":"STATION","stationName":"Lieksa","stationShortCode":"LIS","stationUICCode":468,"countryCode":"FI","longitude":30.01917884577790,"latitude":63.31942095575441},{"passengerTraffic":false,"type":"TURNOUT_IN_THE_OPEN_LINE","stationName":"Lieksan teollisuuskylä","stationShortCode":"LTK","stationUICCode":1157,"countryCode":"FI","longitude":30.06745582732410,"latitude":63.31539857468368},{"passengerTraffic":false,"type":"STATION","stationName":"Lielahti","stationShortCode":"LLH","stationUICCode":183,"countryCode":"FI","longitude":23.68163979480699,"latitude":61.51084845476586},{"passengerTraffic":true,"type":"STATION","stationName":"Lievestuore","stationShortCode":"LVT","stationUICCode":246,"countryCode":"FI","longitude":26.19717852280544,"latitude":62.26076777417768},{"passengerTraffic":false,"type":"STATION","stationName":"Liminka","stationShortCode":"LKA","stationUICCode":338,"countryCode":"FI","longitude":25.42466568025898,"latitude":64.81206937528930},{"passengerTraffic":false,"type":"TURNOUT_IN_THE_OPEN_LINE","stationName":"Lohiluoma","stationShortCode":"LUO","stationUICCode":1159,"countryCode":"FI","longitude":22.28035183407641,"latitude":62.53460870299577},{"passengerTraffic":false,"type":"STATION","stationName":"Lohja","stationShortCode":"LO","stationUICCode":81,"countryCode":"FI","longitude":24.11643255639881,"latitude":60.26550450208837},{"passengerTraffic":true,"type":"STATION","stationName":"Loimaa","stationShortCode":"LM","stationUICCode":142,"countryCode":"FI","longitude":23.06007378942987,"latitude":60.84770034022728},{"passengerTraffic":true,"type":"STOPPING_POINT","stationName":"Louhela","stationShortCode":"LOH","stationUICCode":661,"countryCode":"FI","longitude":24.85367399454637,"latitude":60.27086687498113},{"passengerTraffic":false,"type":"STATION","stationName":"Loukolampi","stationShortCode":"LOL","stationUICCode":861,"countryCode":"FI","longitude":27.20494714769981,"latitude":62.16347922976292},{"passengerTraffic":false,"type":"STATION","stationName":"Loviisan satama","stationShortCode":"LVS","stationUICCode":106,"countryCode":"FI","longitude":26.24857158640598,"latitude":60.41837375805867},{"passengerTraffic":false,"type":"STATION","stationName":"Luikonlahti","stationShortCode":"LUI","stationUICCode":411,"countryCode":"FI","longitude":28.67735065996488,"latitude":62.92874192722125},{"passengerTraffic":true,"type":"STOPPING_POINT","stationName":"Luoma","stationShortCode":"LMA","stationUICCode":71,"countryCode":"FI","longitude":24.55113139963558,"latitude":60.17313146868081},{"passengerTraffic":true,"type":"STOPPING_POINT","stationName":"Lusto","stationShortCode":"LUS","stationUICCode":690,"countryCode":"FI","longitude":29.32459332499846,"latitude":61.80117300519136},{"passengerTraffic":false,"type":"STATION","stationName":"Luumäki","stationShortCode":"LÄ","stationUICCode":487,"countryCode":"FI","longitude":27.76339585004961,"latitude":60.94471189234196},{"passengerTraffic":false,"type":"STATION","stationName":"Lähdemäki","stationShortCode":"LÄH","stationUICCode":1164,"countryCode":"FI","longitude":25.49503749984612,"latitude":60.79940891786310},{"passengerTraffic":false,"type":"STATION","stationName":"Länkipohja","stationShortCode":"LÄP","stationUICCode":203,"countryCode":"FI","longitude":24.81349352865497,"latitude":61.74148493947314},{"passengerTraffic":false,"type":"STATION","stationName":"Maanselkä","stationShortCode":"MLK","stationUICCode":382,"countryCode":"FI","longitude":28.50150806319556,"latitude":63.88367930603354},{"passengerTraffic":false,"type":"STATION","stationName":"Maaria","stationShortCode":"MRI","stationUICCode":1166,"countryCode":"FI","longitude":22.36528001382712,"latitude":60.53874556237932},{"passengerTraffic":false,"type":"STATION","stationName":"Madesjärvi","stationShortCode":"MD","stationUICCode":217,"countryCode":"FI","longitude":22.98707080734091,"latitude":62.31259478479377},{"passengerTraffic":false,"type":"STATION","stationName":"Majajärvi","stationShortCode":"MJJ","stationUICCode":1168,"countryCode":"FI","longitude":23.46930982344049,"latitude":61.68357095273473},{"passengerTraffic":true,"type":"STATION","stationName":"Malmi","stationShortCode":"ML","stationUICCode":17,"countryCode":"FI","longitude":25.01228365397716,"latitude":60.25192380696870},{"passengerTraffic":true,"type":"STOPPING_POINT","stationName":"Malminkartano","stationShortCode":"MLO","stationUICCode":659,"countryCode":"FI","longitude":24.86165879503595,"latitude":60.24937584221512},{"passengerTraffic":false,"type":"STATION","stationName":"Mankala","stationShortCode":"MKA","stationUICCode":1336,"countryCode":"FI","longitude":26.17044795599938,"latitude":60.90508476147516},{"passengerTraffic":true,"type":"STATION","stationName":"Mankki","stationShortCode":"MNK","stationUICCode":706,"countryCode":"FI","longitude":24.58336011307829,"latitude":60.18529344448437},{"passengerTraffic":false,"type":"STATION","stationName":"Markkala","stationShortCode":"MRK","stationUICCode":896,"countryCode":"FI","longitude":27.19192892112900,"latitude":62.54099881294595},{"passengerTraffic":true,"type":"STOPPING_POINT","stationName":"Martinlaakso","stationShortCode":"MRL","stationUICCode":662,"countryCode":"FI","longitude":24.85297969933104,"latitude":60.27814910798213},{"passengerTraffic":true,"type":"STOPPING_POINT","stationName":"Masala","stationShortCode":"MAS","stationUICCode":64,"countryCode":"FI","longitude":24.53935635728351,"latitude":60.15868387050028},{"passengerTraffic":false,"type":"STATION","stationName":"Matkaneva","stationShortCode":"MTV","stationUICCode":1171,"countryCode":"FI","longitude":23.33770924799934,"latitude":63.84268413846684},{"passengerTraffic":false,"type":"STATION","stationName":"Mattila","stationShortCode":"MAT","stationUICCode":1172,"countryCode":"FI","longitude":23.75905778970709,"latitude":61.26138677944003},{"passengerTraffic":false,"type":"TURNOUT_IN_THE_OPEN_LINE","stationName":"Meltola","stationShortCode":"MEL","stationUICCode":584,"countryCode":"FI","longitude":23.77311963230788,"latitude":60.10454563642690},{"passengerTraffic":false,"type":"TURNOUT_IN_THE_OPEN_LINE","stationName":"Metsäkansa","stationShortCode":"MSÄ","stationUICCode":558,"countryCode":"FI","longitude":23.90767916914053,"latitude":61.20833628843641},{"passengerTraffic":true,"type":"STATION","stationName":"Mikkeli","stationShortCode":"MI","stationUICCode":546,"countryCode":"FI","longitude":27.27941117033060,"latitude":61.68842580448914},{"passengerTraffic":true,"type":"STATION","stationName":"Misi","stationShortCode":"MIS","stationUICCode":366,"countryCode":"FI","longitude":26.68871476526339,"latitude":66.62052783823319},{"passengerTraffic":true,"type":"STOPPING_POINT","stationName":"Mommila","stationShortCode":"MLA","stationUICCode":93,"countryCode":"FI","longitude":25.07562075276939,"latitude":60.82146247609396},{"passengerTraffic":true,"type":"STATION","stationName":"Moskova_(Leningradski)","stationShortCode":"MVA","stationUICCode":6007,"countryCode":"RU","longitude":33.21093910575679,"latitude":59.63544231418012},{"passengerTraffic":true,"type":"STATION","stationName":"Muhos","stationShortCode":"MH","stationUICCode":375,"countryCode":"FI","longitude":25.99304285725017,"latitude":64.80728094383311},{"passengerTraffic":false,"type":"STATION","stationName":"Mukkula","stationShortCode":"MUK","stationUICCode":594,"countryCode":"FI","longitude":25.65853169678020,"latitude":61.00610378845409},{"passengerTraffic":false,"type":"STATION","stationName":"Murtomäki","stationShortCode":"MUR","stationUICCode":386,"countryCode":"FI","longitude":27.58133544723526,"latitude":64.06598944304325},{"passengerTraffic":false,"type":"TURNOUT_IN_THE_OPEN_LINE","stationName":"Mustio","stationShortCode":"MSO","stationUICCode":78,"countryCode":"FI","longitude":23.86824142044064,"latitude":60.14037668682120},{"passengerTraffic":false,"type":"STATION","stationName":"Mustolan satama","stationShortCode":"MST","stationUICCode":77,"countryCode":"FI","longitude":28.33810454411890,"latitude":61.05624991064256},{"passengerTraffic":false,"type":"STATION","stationName":"Muukko","stationShortCode":"MKO","stationUICCode":1180,"countryCode":"FI","longitude":28.34341647276260,"latitude":61.08851303668337},{"passengerTraffic":false,"type":"STATION","stationName":"Muurame","stationShortCode":"MUU","stationUICCode":433,"countryCode":"FI","longitude":25.65143200040300,"latitude":62.11124413455745},{"passengerTraffic":true,"type":"STATION","stationName":"Muurola","stationShortCode":"MUL","stationUICCode":363,"countryCode":"FI","longitude":25.37590919112398,"latitude":66.37338741576764},{"passengerTraffic":false,"type":"STATION","stationName":"Myllykangas","stationShortCode":"MYS","stationUICCode":1183,"countryCode":"FI","longitude":25.27330887920169,"latitude":65.53792760762170},{"passengerTraffic":true,"type":"STOPPING_POINT","stationName":"Myllykoski","stationShortCode":"MKI","stationUICCode":536,"countryCode":"FI","longitude":26.78878740841026,"latitude":60.77027963498980},{"passengerTraffic":true,"type":"STOPPING_POINT","stationName":"Myllymäki","stationShortCode":"MY","stationUICCode":263,"countryCode":"FI","longitude":24.28114871286478,"latitude":62.52572704685967},{"passengerTraffic":false,"type":"STATION","stationName":"Myllyoja","stationShortCode":"MYL","stationUICCode":606,"countryCode":"FI","longitude":25.99056018217938,"latitude":61.16410976800866},{"passengerTraffic":false,"type":"STATION","stationName":"Mynttilä","stationShortCode":"MYT","stationUICCode":543,"countryCode":"FI","longitude":26.92518933002756,"latitude":61.48780910334277},{"passengerTraffic":false,"type":"STATION","stationName":"Mynämäki","stationShortCode":"MYN","stationUICCode":123,"countryCode":"FI","longitude":21.96332498481038,"latitude":60.65063896226259},{"passengerTraffic":true,"type":"STATION","stationName":"Myyrmäki","stationShortCode":"MYR","stationUICCode":660,"countryCode":"FI","longitude":24.85512645024951,"latitude":60.26138729030786},{"passengerTraffic":true,"type":"STOPPING_POINT","stationName":"Mäkkylä","stationShortCode":"MÄK","stationUICCode":693,"countryCode":"FI","longitude":24.84335285943196,"latitude":60.22135166760783},{"passengerTraffic":true,"type":"STATION","stationName":"Mäntsälä","stationShortCode":"MLÄ","stationUICCode":27,"countryCode":"FI","longitude":25.30804882689838,"latitude":60.64747215170215},{"passengerTraffic":false,"type":"STATION","stationName":"Mänttä","stationShortCode":"MÄN","stationUICCode":198,"countryCode":"FI","longitude":24.64722941809923,"latitude":62.02979598624717},{"passengerTraffic":true,"type":"STATION","stationName":"Mäntyharju","stationShortCode":"MR","stationUICCode":544,"countryCode":"FI","longitude":26.88301862272029,"latitude":61.42161667696219},{"passengerTraffic":false,"type":"STATION","stationName":"Mäntyluoto","stationShortCode":"MN","stationUICCode":223,"countryCode":"FI","longitude":21.52698594477221,"latitude":61.59611685869375},{"passengerTraffic":false,"type":"STATION","stationName":"Naantali","stationShortCode":"NNL","stationUICCode":124,"countryCode":"FI","longitude":22.03286990105007,"latitude":60.46627942259062},{"passengerTraffic":false,"type":"STATION","stationName":"Naarajärvi","stationShortCode":"NRI","stationUICCode":895,"countryCode":"FI","longitude":27.04679210978041,"latitude":62.28399494703678},{"passengerTraffic":false,"type":"STATION","stationName":"Nakkila","stationShortCode":"NAL","stationUICCode":672,"countryCode":"FI","longitude":21.96877874683678,"latitude":61.38755327504111},{"passengerTraffic":true,"type":"STOPPING_POINT","stationName":"Nastola","stationShortCode":"NSL","stationUICCode":595,"countryCode":"FI","longitude":25.93630501706583,"latitude":60.93588775548591},{"passengerTraffic":false,"type":"STATION","stationName":"Niemenpää","stationShortCode":"NMP","stationUICCode":1185,"countryCode":"FI","longitude":23.92114137041001,"latitude":66.16799309400896},{"passengerTraffic":false,"type":"TURNOUT_IN_THE_OPEN_LINE","stationName":"Niinimaa","stationShortCode":"NII","stationUICCode":285,"countryCode":"FI","longitude":23.42045465402991,"latitude":62.64327467094802},{"passengerTraffic":false,"type":"STATION","stationName":"Niinimäki","stationShortCode":"NMÄ","stationUICCode":1324,"countryCode":"FI","longitude":26.39036665297726,"latitude":60.87663180347209},{"passengerTraffic":false,"type":"STATION","stationName":"Niinisalo","stationShortCode":"NNS","stationUICCode":227,"countryCode":"FI","longitude":22.48131930955572,"latitude":61.84536930103178},{"passengerTraffic":false,"type":"STATION","stationName":"Niirala","stationShortCode":"NRL","stationUICCode":446,"countryCode":"FI","longitude":30.60318246456116,"latitude":62.17576333509505},{"passengerTraffic":false,"type":"STATION","stationName":"Niirala-raja","stationShortCode":"NRLR","stationUICCode":445,"countryCode":"FI","longitude":30.63520740593547,"latitude":62.17109765760528},{"passengerTraffic":false,"type":"STATION","stationName":"Niittylahti","stationShortCode":"NTH","stationUICCode":917,"countryCode":"FI","longitude":29.84852271475043,"latitude":62.51310930806942},{"passengerTraffic":true,"type":"STOPPING_POINT","stationName":"Nikkilä","stationShortCode":"NLÄ","stationUICCode":22,"countryCode":"FI","longitude":25.26709690184649,"latitude":60.38247623486703},{"passengerTraffic":true,"type":"STATION","stationName":"Nivala","stationShortCode":"NVL","stationUICCode":328,"countryCode":"FI","longitude":24.96130874730654,"latitude":63.93793188822584},{"passengerTraffic":true,"type":"STATION","stationName":"Nokia","stationShortCode":"NOA","stationUICCode":181,"countryCode":"FI","longitude":23.49901257011566,"latitude":61.48162089882020},{"passengerTraffic":false,"type":"STATION","stationName":"Nummela","stationShortCode":"NM","stationUICCode":84,"countryCode":"FI","longitude":24.31711023318116,"latitude":60.32888068549408},{"passengerTraffic":true,"type":"STOPPING_POINT","stationName":"Nuppulinna","stationShortCode":"NUP","stationUICCode":565,"countryCode":"FI","longitude":25.01923386124053,"latitude":60.52953733166319},{"passengerTraffic":true,"type":"STATION","stationName":"Nurmes","stationShortCode":"NRM","stationUICCode":472,"countryCode":"FI","longitude":29.13964809524903,"latitude":63.54240718848218},{"passengerTraffic":false,"type":"TURNOUT_IN_THE_OPEN_LINE","stationName":"Närpiö","stationShortCode":"NÄR","stationUICCode":268,"countryCode":"FI","longitude":21.36288428629279,"latitude":62.46912319047021},{"passengerTraffic":false,"type":"TURNOUT_IN_THE_OPEN_LINE","stationName":"Ohenmäki","stationShortCode":"OHM","stationUICCode":1190,"countryCode":"FI","longitude":27.26816328318058,"latitude":63.49633214078571},{"passengerTraffic":true,"type":"STATION","stationName":"Oitti","stationShortCode":"OI","stationUICCode":92,"countryCode":"FI","longitude":25.02177663623284,"latitude":60.79008217345248},{"passengerTraffic":false,"type":"TURNOUT_IN_THE_OPEN_LINE","stationName":"Olli","stationShortCode":"OLLI","stationUICCode":570,"countryCode":"FI","longitude":25.37482106248185,"latitude":60.38291012878976},{"passengerTraffic":false,"type":"TURNOUT_IN_THE_OPEN_LINE","stationName":"Onttola","stationShortCode":"ONT","stationUICCode":443,"countryCode":"FI","longitude":29.70296572373675,"latitude":62.63649982419007},{"passengerTraffic":false,"type":"TURNOUT_IN_THE_OPEN_LINE","stationName":"Orimattila","stationShortCode":"OM","stationUICCode":109,"countryCode":"FI","longitude":25.74949971613381,"latitude":60.81476991705373},{"passengerTraffic":true,"type":"STATION","stationName":"Orivesi","stationShortCode":"OV","stationUICCode":190,"countryCode":"FI","longitude":24.36825855634620,"latitude":61.65071908173213},{"passengerTraffic":true,"type":"STOPPING_POINT","stationName":"Orivesi keskusta","stationShortCode":"OVK","stationUICCode":1316,"countryCode":"FI","longitude":24.37004886395428,"latitude":61.67453843984684},{"passengerTraffic":false,"type":"STATION","stationName":"Otanmäki","stationShortCode":"OTM","stationUICCode":385,"countryCode":"FI","longitude":27.09387552935176,"latitude":64.11362339183061},{"passengerTraffic":false,"type":"STATION","stationName":"Otava","stationShortCode":"OT","stationUICCode":545,"countryCode":"FI","longitude":27.07293578414057,"latitude":61.64141827268210},{"passengerTraffic":true,"type":"STATION","stationName":"Oulainen","stationShortCode":"OU","stationUICCode":322,"countryCode":"FI","longitude":24.82147000231099,"latitude":64.27115016072229},{"passengerTraffic":true,"type":"STATION","stationName":"Oulu asema","stationShortCode":"OL","stationUICCode":370,"countryCode":"FI","longitude":25.48694443620122,"latitude":65.01436484398653},{"passengerTraffic":false,"type":"STATION","stationName":"Oulu Nokela","stationShortCode":"NOK","stationUICCode":1195,"countryCode":"FI","longitude":25.48033920948532,"latitude":64.99131330827448},{"passengerTraffic":false,"type":"STATION","stationName":"Oulu Oritkari","stationShortCode":"ORI","stationUICCode":1196,"countryCode":"FI","longitude":25.47452900434554,"latitude":65.00135974162235},{"passengerTraffic":false,"type":"STATION","stationName":"Oulu tavara","stationShortCode":"OLT","stationUICCode":1197,"countryCode":"FI","longitude":25.47426780345459,"latitude":65.00296356963776},{"passengerTraffic":false,"type":"STATION","stationName":"Oulu Tuira","stationShortCode":"TUA","stationUICCode":339,"countryCode":"FI","longitude":25.47576337348152,"latitude":65.03068409219094},{"passengerTraffic":true,"type":"STATION","stationName":"Oulunkylä","stationShortCode":"OLK","stationUICCode":15,"countryCode":"FI","longitude":24.96850881268564,"latitude":60.22926457931425},{"passengerTraffic":true,"type":"STATION","stationName":"Paimenportti","stationShortCode":"PTI","stationUICCode":768,"countryCode":"FI","longitude":26.91814366085923,"latitude":60.47606337343475},{"passengerTraffic":false,"type":"STATION","stationName":"Paimio","stationShortCode":"PO","stationUICCode":128,"countryCode":"FI","longitude":22.68556775580264,"latitude":60.45960495908250},{"passengerTraffic":false,"type":"STATION","stationName":"Palopuro","stationShortCode":"PLP","stationUICCode":562,"countryCode":"FI","longitude":24.90661979797415,"latitude":60.60167449013571},{"passengerTraffic":true,"type":"STATION","stationName":"Paltamo","stationShortCode":"PTO","stationUICCode":379,"countryCode":"FI","longitude":27.82405642228581,"latitude":64.40231394217331},{"passengerTraffic":false,"type":"STATION","stationName":"Pankakoski","stationShortCode":"PAS","stationUICCode":935,"countryCode":"FI","longitude":30.12832140263593,"latitude":63.32276143459350},{"passengerTraffic":true,"type":"STATION","stationName":"Parikkala","stationShortCode":"PAR","stationUICCode":510,"countryCode":"FI","longitude":29.50526085780964,"latitude":61.55907216661326},{"passengerTraffic":true,"type":"STATION","stationName":"Parkano","stationShortCode":"PKO","stationUICCode":215,"countryCode":"FI","longitude":23.07806350568255,"latitude":62.05294521875695},{"passengerTraffic":true,"type":"STATION","stationName":"Parola","stationShortCode":"PRL","stationUICCode":49,"countryCode":"FI","longitude":24.36653106357095,"latitude":61.05040794545371},{"passengerTraffic":true,"type":"STATION","stationName":"Pasila asema","stationShortCode":"PSL","stationUICCode":10,"countryCode":"FI","longitude":24.93378787904055,"latitude":60.19903408296963},{"passengerTraffic":true,"type":"STATION","stationName":"Pasila autojuna-asema","stationShortCode":"PAU","stationUICCode":1328,"countryCode":"FI","longitude":24.93584115642040,"latitude":60.20741926594994},{"passengerTraffic":false,"type":"STATION","stationName":"Pasila tavara","stationShortCode":"PSLT","stationUICCode":1034,"countryCode":"FI","longitude":24.93621447499272,"latitude":60.21239208127861},{"passengerTraffic":false,"type":"STATION","stationName":"Pelkola","stationShortCode":"PA","stationUICCode":1055,"countryCode":"FI","longitude":28.81579196929271,"latitude":61.13461814970317},{"passengerTraffic":true,"type":"STATION","stationName":"Pello","stationShortCode":"PEL","stationUICCode":356,"countryCode":"FI","longitude":23.99350002261649,"latitude":66.78734735541121},{"passengerTraffic":false,"type":"TURNOUT_IN_THE_OPEN_LINE","stationName":"Peltosalmi","stationShortCode":"PMI","stationUICCode":882,"countryCode":"FI","longitude":27.24772062622946,"latitude":63.52219809646767},{"passengerTraffic":false,"type":"STATION","stationName":"Peräseinäjoki","stationShortCode":"PSJ","stationUICCode":687,"countryCode":"FI","longitude":22.94160075527913,"latitude":62.55053104823900},{"passengerTraffic":false,"type":"STATION","stationName":"Pesiökylä","stationShortCode":"PSK","stationUICCode":393,"countryCode":"FI","longitude":28.57183685613167,"latitude":64.92801996728949},{"passengerTraffic":false,"type":"STATION","stationName":"Petroskoi / Petrozavodsk","stationShortCode":"PTK","stationUICCode":1000,"countryCode":"RU","longitude":32.17680813127959,"latitude":62.11698000010055},{"passengerTraffic":true,"type":"STATION","stationName":"Petäjävesi","stationShortCode":"PVI","stationUICCode":237,"countryCode":"FI","longitude":25.18992095413212,"latitude":62.25783497375610},{"passengerTraffic":true,"type":"STATION","stationName":"Pieksämäki asema","stationShortCode":"PM","stationUICCode":400,"countryCode":"FI","longitude":27.16896184523164,"latitude":62.30211285231618},{"passengerTraffic":false,"type":"STATION","stationName":"Pieksämäki lajittelu","stationShortCode":"PMLA","stationUICCode":1210,"countryCode":"FI","longitude":27.17368509461031,"latitude":62.32531049317705},{"passengerTraffic":false,"type":"STATION","stationName":"Pieksämäki tavara","stationShortCode":"PMT","stationUICCode":1211,"countryCode":"FI","longitude":27.17761224073023,"latitude":62.33674117798063},{"passengerTraffic":false,"type":"STATION","stationName":"Pieksämäki Temu","stationShortCode":"TMU","stationUICCode":1212,"countryCode":"FI","longitude":27.17128578790158,"latitude":62.31403040301272},{"passengerTraffic":true,"type":"STATION","stationName":"Pietari_(Finljandski)","stationShortCode":"PTR","stationUICCode":3820,"countryCode":"RU","longitude":30.52821860907999,"latitude":59.46557702681318},{"passengerTraffic":false,"type":"STATION","stationName":"Pietarsaari","stationShortCode":"PTS","stationUICCode":306,"countryCode":"FI","longitude":22.71418750756535,"latitude":63.67576757979602},{"passengerTraffic":true,"type":"STATION","stationName":"Pihlajavesi","stationShortCode":"PH","stationUICCode":261,"countryCode":"FI","longitude":24.39584002667575,"latitude":62.34712750649998},{"passengerTraffic":false,"type":"STATION","stationName":"Pihtipudas","stationShortCode":"PP","stationUICCode":258,"countryCode":"FI","longitude":25.55705283545675,"latitude":63.37311568085998},{"passengerTraffic":false,"type":"STATION","stationName":"Piikkiö","stationShortCode":"PIK","stationUICCode":127,"countryCode":"FI","longitude":22.51531305813403,"latitude":60.42324812191257},{"passengerTraffic":false,"type":"STATION","stationName":"Pikkarala","stationShortCode":"PKL","stationUICCode":819,"countryCode":"FI","longitude":25.75500836228718,"latitude":64.91462231132688},{"passengerTraffic":true,"type":"STOPPING_POINT","stationName":"Pitäjänmäki","stationShortCode":"PJM","stationUICCode":69,"countryCode":"FI","longitude":24.86017089093160,"latitude":60.22343845677647},{"passengerTraffic":false,"type":"STATION","stationName":"Pohjankuru","stationShortCode":"PKU","stationUICCode":59,"countryCode":"FI","longitude":23.55176723177291,"latitude":60.09818524633457},{"passengerTraffic":true,"type":"STOPPING_POINT","stationName":"Pohjois-Haaga","stationShortCode":"POH","stationUICCode":657,"countryCode":"FI","longitude":24.88364622155584,"latitude":60.23012948278079},{"passengerTraffic":false,"type":"STATION","stationName":"Pohjois-Louko","stationShortCode":"PLU","stationUICCode":1214,"countryCode":"FI","longitude":22.94079688126658,"latitude":62.64773072618168},{"passengerTraffic":false,"type":"STATION","stationName":"Poikkeus","stationShortCode":"PKK","stationUICCode":1216,"countryCode":"FI","longitude":23.13751800029301,"latitude":61.98998965906128},{"passengerTraffic":false,"type":"TURNOUT_IN_THE_OPEN_LINE","stationName":"Poiksilta","stationShortCode":"POI","stationUICCode":965,"countryCode":"FI","longitude":29.74439702791639,"latitude":61.79124827387800},{"passengerTraffic":true,"type":"STATION","stationName":"Pori","stationShortCode":"PRI","stationUICCode":220,"countryCode":"FI","longitude":21.78572321913222,"latitude":61.47777209750049},{"passengerTraffic":false,"type":"TURNOUT_IN_THE_OPEN_LINE","stationName":"Porokylä","stationShortCode":"POR","stationUICCode":473,"countryCode":"FI","longitude":29.10206628967256,"latitude":63.55704092800343},{"passengerTraffic":true,"type":"STATION","stationName":"Porvoo","stationShortCode":"PRV","stationUICCode":23,"countryCode":"FI","longitude":25.64916540672484,"latitude":60.39670795733601},{"passengerTraffic":false,"type":"STATION","stationName":"Puhos","stationShortCode":"PUS","stationUICCode":919,"countryCode":"FI","longitude":29.97872065332543,"latitude":62.08931899742871},{"passengerTraffic":true,"type":"STOPPING_POINT","stationName":"Puistola","stationShortCode":"PLA","stationUICCode":553,"countryCode":"FI","longitude":25.03725885963996,"latitude":60.27666250460228},{"passengerTraffic":true,"type":"STOPPING_POINT","stationName":"Pukinmäki","stationShortCode":"PMK","stationUICCode":551,"countryCode":"FI","longitude":24.99410384078672,"latitude":60.24247098204923},{"passengerTraffic":false,"type":"STATION","stationName":"Pulsa","stationShortCode":"PL","stationUICCode":1217,"countryCode":"FI","longitude":27.97440374030262,"latitude":60.92760250708037},{"passengerTraffic":true,"type":"STATION","stationName":"Punkaharju","stationShortCode":"PUN","stationUICCode":517,"countryCode":"FI","longitude":29.38469453226840,"latitude":61.76175674492351},{"passengerTraffic":true,"type":"STATION","stationName":"Purola","stationShortCode":"PUR","stationUICCode":564,"countryCode":"FI","longitude":25.05074734567160,"latitude":60.50041698448968},{"passengerTraffic":false,"type":"STATION","stationName":"Pyhäkumpu","stationShortCode":"PYK","stationUICCode":757,"countryCode":"FI","longitude":26.04351799019534,"latitude":63.66294273956703},{"passengerTraffic":false,"type":"STATION","stationName":"Pyhäkumpu erkanemisvaihde","stationShortCode":"PYE","stationUICCode":1218,"countryCode":"FI","longitude":26.03119187675353,"latitude":63.67898873765653},{"passengerTraffic":true,"type":"STATION","stationName":"Pyhäsalmi","stationShortCode":"PHÄ","stationUICCode":331,"countryCode":"FI","longitude":25.98361502891564,"latitude":63.68436897410799},{"passengerTraffic":true,"type":"STATION","stationName":"Pännäinen","stationShortCode":"PNÄ","stationUICCode":305,"countryCode":"FI","longitude":22.78989134643909,"latitude":63.59679710335286},{"passengerTraffic":true,"type":"STATION","stationName":"Pääskylahti","stationShortCode":"PKY","stationUICCode":519,"countryCode":"FI","longitude":28.92668569826586,"latitude":61.86294308202961},{"passengerTraffic":false,"type":"TURNOUT_IN_THE_OPEN_LINE","stationName":"R530","stationShortCode":"R530","stationUICCode":99994,"countryCode":"FI","longitude":25.02204560035829,"latitude":64.60555052404949},{"passengerTraffic":false,"type":"STATION","stationName":"Raahe","stationShortCode":"RHE","stationUICCode":335,"countryCode":"FI","longitude":24.49096479953922,"latitude":64.68520983077001},{"passengerTraffic":false,"type":"TURNOUT_IN_THE_OPEN_LINE","stationName":"Raide934","stationShortCode":"R934","stationUICCode":99998,"countryCode":"FI","longitude":28.10061446207352,"latitude":64.36296084071225},{"passengerTraffic":false,"type":"STATION","stationName":"Raippo","stationShortCode":"RPO","stationUICCode":490,"countryCode":"FI","longitude":28.10781306392960,"latitude":60.91237558484782},{"passengerTraffic":false,"type":"STATION","stationName":"Raisio","stationShortCode":"RAI","stationUICCode":125,"countryCode":"FI","longitude":22.12855842619777,"latitude":60.48592803807709},{"passengerTraffic":false,"type":"STATION","stationName":"Rajamäki","stationShortCode":"RM","stationUICCode":88,"countryCode":"FI","longitude":24.76199869096384,"latitude":60.53273889925433},{"passengerTraffic":false,"type":"STATION","stationName":"Rajaperkiö","stationShortCode":"RJP","stationUICCode":1220,"countryCode":"FI","longitude":23.01298365073672,"latitude":63.03743932338116},{"passengerTraffic":false,"type":"STATION","stationName":"Rantasalmi","stationShortCode":"RMI","stationUICCode":524,"countryCode":"FI","longitude":28.27849688902250,"latitude":62.01507534552261},{"passengerTraffic":false,"type":"STATION","stationName":"Rasinsuo","stationShortCode":"RAS","stationUICCode":1222,"countryCode":"FI","longitude":27.89378914055414,"latitude":60.97650210051839},{"passengerTraffic":false,"type":"STATION","stationName":"Ratikylä","stationShortCode":"RLÄ","stationUICCode":596,"countryCode":"FI","longitude":23.01084770737152,"latitude":62.24621619845151},{"passengerTraffic":false,"type":"STATION","stationName":"Rauha","stationShortCode":"RAH","stationUICCode":501,"countryCode":"FI","longitude":28.68966439772580,"latitude":61.17870881750006},{"passengerTraffic":false,"type":"TURNOUT_IN_THE_OPEN_LINE","stationName":"Rauhalahti","stationShortCode":"RHL","stationUICCode":1225,"countryCode":"FI","longitude":25.80191538100761,"latitude":62.24080913596418},{"passengerTraffic":false,"type":"STATION","stationName":"Rauma","stationShortCode":"RMA","stationUICCode":165,"countryCode":"FI","longitude":21.49142690725031,"latitude":61.13277899321351},{"passengerTraffic":false,"type":"STATION","stationName":"Raunio","stationShortCode":"RIO","stationUICCode":1227,"countryCode":"FI","longitude":22.95477192028780,"latitude":63.17275954183184},{"passengerTraffic":false,"type":"STATION","stationName":"Rautaruukki","stationShortCode":"RAT","stationUICCode":750,"countryCode":"FI","longitude":24.46342490035612,"latitude":64.68456963658556},{"passengerTraffic":false,"type":"STATION","stationName":"Rautjärvi","stationShortCode":"RJÄ","stationUICCode":506,"countryCode":"FI","longitude":29.08731170049994,"latitude":61.30123706219680},{"passengerTraffic":false,"type":"TURNOUT_IN_THE_OPEN_LINE","stationName":"Rautpohja","stationShortCode":"RPH","stationUICCode":1232,"countryCode":"FI","longitude":25.69118223310842,"latitude":62.23339008298343},{"passengerTraffic":true,"type":"STOPPING_POINT","stationName":"Rekola","stationShortCode":"RKL","stationUICCode":554,"countryCode":"FI","longitude":25.06929940698713,"latitude":60.33319435751530},{"passengerTraffic":true,"type":"STOPPING_POINT","stationName":"Retretti","stationShortCode":"REE","stationUICCode":793,"countryCode":"FI","longitude":29.29659930650906,"latitude":61.80393421980435},{"passengerTraffic":false,"type":"STATION","stationName":"Riihimäki Arolampi","stationShortCode":"ARP","stationUICCode":1235,"countryCode":"FI","longitude":24.81886129034707,"latitude":60.69747214272212},{"passengerTraffic":true,"type":"STATION","stationName":"Riihimäki asema","stationShortCode":"RI","stationUICCode":40,"countryCode":"FI","longitude":24.78158719581889,"latitude":60.73637998354012},{"passengerTraffic":false,"type":"STATION","stationName":"Riihimäki lajittelu","stationShortCode":"RILA","stationUICCode":1238,"countryCode":"FI","longitude":24.79037804239735,"latitude":60.73232169082550},{"passengerTraffic":false,"type":"STATION","stationName":"Riihimäki tavara","stationShortCode":"RIT","stationUICCode":1240,"countryCode":"FI","longitude":24.80078188992646,"latitude":60.72261286480028},{"passengerTraffic":false,"type":"STATION","stationName":"Riijärvi","stationShortCode":"RJR","stationUICCode":1327,"countryCode":"FI","longitude":22.67567279647533,"latitude":63.46817540553229},{"passengerTraffic":false,"type":"STATION","stationName":"Riippa","stationShortCode":"RPA","stationUICCode":747,"countryCode":"FI","longitude":23.64912691675746,"latitude":63.86983747572984},{"passengerTraffic":false,"type":"STATION","stationName":"Ristiina","stationShortCode":"RST","stationUICCode":770,"countryCode":"FI","longitude":27.26576879655899,"latitude":61.46212893577299},{"passengerTraffic":false,"type":"STATION","stationName":"Ristijärvi","stationShortCode":"RJV","stationUICCode":391,"countryCode":"FI","longitude":28.18791282153155,"latitude":64.49008857086702},{"passengerTraffic":true,"type":"STATION","stationName":"Rovaniemi","stationShortCode":"ROI","stationUICCode":364,"countryCode":"FI","longitude":25.70629712204563,"latitude":66.50023988189707},{"passengerTraffic":false,"type":"STATION","stationName":"Ruha","stationShortCode":"RHA","stationUICCode":742,"countryCode":"FI","longitude":22.99665787166855,"latitude":62.90446465992294},{"passengerTraffic":true,"type":"STOPPING_POINT","stationName":"Runni","stationShortCode":"RNN","stationUICCode":886,"countryCode":"FI","longitude":26.88789244105419,"latitude":63.60344462959058},{"passengerTraffic":false,"type":"STATION","stationName":"Ruokosuo","stationShortCode":"RSU","stationUICCode":1342,"countryCode":"FI","longitude":27.74011313505698,"latitude":63.09744022547317},{"passengerTraffic":true,"type":"STATION","stationName":"Ruukki","stationShortCode":"RKI","stationUICCode":337,"countryCode":"FI","longitude":25.09880610628957,"latitude":64.66219434581333},{"passengerTraffic":false,"type":"STATION","stationName":"Ruusumäki","stationShortCode":"RSM","stationUICCode":1338,"countryCode":"FI","longitude":24.90027907847368,"latitude":60.31194995056232},{"passengerTraffic":true,"type":"STATION","stationName":"Ryttylä","stationShortCode":"RY","stationUICCode":42,"countryCode":"FI","longitude":24.75848958957459,"latitude":60.81843977948854},{"passengerTraffic":false,"type":"STATION","stationName":"Röyttä","stationShortCode":"RÖY","stationUICCode":833,"countryCode":"FI","longitude":24.16308276395117,"latitude":65.76806984599402},{"passengerTraffic":false,"type":"STATION","stationName":"Saakoski","stationShortCode":"SAA","stationUICCode":668,"countryCode":"FI","longitude":25.41124412634131,"latitude":61.99111258707845},{"passengerTraffic":false,"type":"STATION","stationName":"Saari","stationShortCode":"SR","stationUICCode":964,"countryCode":"FI","longitude":29.66331643914387,"latitude":61.69563052502078},{"passengerTraffic":false,"type":"STATION","stationName":"Saarijärvi","stationShortCode":"SRJ","stationUICCode":254,"countryCode":"FI","longitude":25.28373856953833,"latitude":62.70111613431559},{"passengerTraffic":false,"type":"STATION","stationName":"Salminen","stationShortCode":"SLN","stationUICCode":405,"countryCode":"FI","longitude":27.28763450285262,"latitude":62.67724970851093},{"passengerTraffic":true,"type":"STATION","stationName":"Salo","stationShortCode":"SLO","stationUICCode":55,"countryCode":"FI","longitude":23.12138075531426,"latitude":60.38473030320888},{"passengerTraffic":false,"type":"STATION","stationName":"Sammalisto","stationShortCode":"SAM","stationUICCode":1246,"countryCode":"FI","longitude":24.78410404802121,"latitude":60.76399558245470},{"passengerTraffic":true,"type":"STOPPING_POINT","stationName":"Santala","stationShortCode":"STA","stationUICCode":827,"countryCode":"FI","longitude":23.12100155087275,"latitude":59.87497990500802},{"passengerTraffic":true,"type":"STATION","stationName":"Saunakallio","stationShortCode":"SAU","stationUICCode":806,"countryCode":"FI","longitude":25.06605174042367,"latitude":60.48743730788218},{"passengerTraffic":false,"type":"STATION","stationName":"Saunamäki","stationShortCode":"SMÄ","stationUICCode":1325,"countryCode":"FI","longitude":26.51955589062447,"latitude":60.85919864915495},{"passengerTraffic":true,"type":"STOPPING_POINT","stationName":"Savio","stationShortCode":"SAV","stationUICCode":555,"countryCode":"FI","longitude":25.09833328500912,"latitude":60.38153702331244},{"passengerTraffic":true,"type":"STATION","stationName":"Savonlinna asema","stationShortCode":"SL","stationUICCode":521,"countryCode":"FI","longitude":28.88837359796212,"latitude":61.86971522120385},{"passengerTraffic":true,"type":"STATION","stationName":"Seinäjoki asema","stationShortCode":"SK","stationUICCode":280,"countryCode":"FI","longitude":22.84376809322631,"latitude":62.79310869015571},{"passengerTraffic":false,"type":"STATION","stationName":"Seinäjoki tavara","stationShortCode":"SKT","stationUICCode":1252,"countryCode":"FI","longitude":22.87058521799952,"latitude":62.78388570764475},{"passengerTraffic":false,"type":"STATION","stationName":"Selänpää","stationShortCode":"SPÄ","stationUICCode":539,"countryCode":"FI","longitude":26.71532339977419,"latitude":61.00813578885471},{"passengerTraffic":false,"type":"STATION","stationName":"Sieppijärvi","stationShortCode":"SPJ","stationUICCode":796,"countryCode":"FI","longitude":23.86743174627524,"latitude":67.16234337967936},{"passengerTraffic":false,"type":"STATION","stationName":"Sievi","stationShortCode":"SVI","stationUICCode":319,"countryCode":"FI","longitude":24.28180074657591,"latitude":63.98112517612878},{"passengerTraffic":false,"type":"STATION","stationName":"Siikamäki","stationShortCode":"SKÄ","stationUICCode":429,"countryCode":"FI","longitude":27.40922568783743,"latitude":62.29002477146366},{"passengerTraffic":true,"type":"STATION","stationName":"Siilinjärvi Asema","stationShortCode":"SIJ","stationUICCode":413,"countryCode":"FI","longitude":27.66827074395875,"latitude":63.07612110538619},{"passengerTraffic":false,"type":"STATION","stationName":"Simo","stationShortCode":"SIM","stationUICCode":346,"countryCode":"FI","longitude":25.06143343746777,"latitude":65.66536983252404},{"passengerTraffic":true,"type":"STATION","stationName":"Simpele","stationShortCode":"SPL","stationUICCode":507,"countryCode":"FI","longitude":29.37400001087265,"latitude":61.42525891531353},{"passengerTraffic":false,"type":"STATION","stationName":"Sipilä","stationShortCode":"SIP","stationUICCode":1254,"countryCode":"FI","longitude":25.42097557516398,"latitude":60.71136251994604},{"passengerTraffic":false,"type":"STATION","stationName":"Sisättö","stationShortCode":"STÖ","stationUICCode":1257,"countryCode":"FI","longitude":23.31078376614865,"latitude":61.83877593803660},{"passengerTraffic":true,"type":"STATION","stationName":"Siuntio","stationShortCode":"STI","stationUICCode":576,"countryCode":"FI","longitude":24.22188538150318,"latitude":60.14067055700216},{"passengerTraffic":false,"type":"STATION","stationName":"Siuro","stationShortCode":"SIU","stationUICCode":179,"countryCode":"FI","longitude":23.33887517805893,"latitude":61.47501037227023},{"passengerTraffic":true,"type":"STOPPING_POINT","stationName":"Skogby","stationShortCode":"SGY","stationUICCode":817,"countryCode":"FI","longitude":23.31038437172605,"latitude":59.92594529907125},{"passengerTraffic":false,"type":"STATION","stationName":"Sköldvik","stationShortCode":"SLD","stationUICCode":560,"countryCode":"FI","longitude":25.48247606384017,"latitude":60.30603356987969},{"passengerTraffic":false,"type":"TURNOUT_IN_THE_OPEN_LINE","stationName":"Soinlahti","stationShortCode":"SOA","stationUICCode":422,"countryCode":"FI","longitude":27.20610254178085,"latitude":63.63555912392345},{"passengerTraffic":false,"type":"TURNOUT_IN_THE_OPEN_LINE","stationName":"Sorsasalo","stationShortCode":"SOR","stationUICCode":870,"countryCode":"FI","longitude":27.68483176403098,"latitude":62.95447593998074},{"passengerTraffic":true,"type":"STATION","stationName":"Sukeva","stationShortCode":"SKV","stationUICCode":424,"countryCode":"FI","longitude":27.42396284761255,"latitude":63.86610301830461},{"passengerTraffic":false,"type":"STATION","stationName":"Suolahti","stationShortCode":"SUO","stationUICCode":251,"countryCode":"FI","longitude":25.85242171919136,"latitude":62.56233722686014},{"passengerTraffic":true,"type":"STATION","stationName":"Suonenjoki","stationShortCode":"SNJ","stationUICCode":404,"countryCode":"FI","longitude":27.12594132468590,"latitude":62.62471063765651},{"passengerTraffic":false,"type":"STATION","stationName":"Suoniemi","stationShortCode":"SNM","stationUICCode":638,"countryCode":"FI","longitude":23.20971261973912,"latitude":61.46580445603526},{"passengerTraffic":false,"type":"TURNOUT_IN_THE_OPEN_LINE","stationName":"Syrjä","stationShortCode":"SYR","stationUICCode":435,"countryCode":"FI","longitude":28.36833861875567,"latitude":62.35700371393570},{"passengerTraffic":false,"type":"STATION","stationName":"Syrjämäki","stationShortCode":"SKI","stationUICCode":1265,"countryCode":"FI","longitude":22.91187064136937,"latitude":62.75750668073394},{"passengerTraffic":false,"type":"STATION","stationName":"Sysmäjärvi","stationShortCode":"SMJ","stationUICCode":912,"countryCode":"FI","longitude":29.06309618409201,"latitude":62.71789646308427},{"passengerTraffic":false,"type":"STATION","stationName":"Säkäniemi","stationShortCode":"SÄ","stationUICCode":918,"countryCode":"FI","longitude":30.12623978855992,"latitude":62.31057617956780},{"passengerTraffic":false,"type":"TURNOUT_IN_THE_OPEN_LINE","stationName":"Sänkimäki","stationShortCode":"SKM","stationUICCode":872,"countryCode":"FI","longitude":27.86855693024270,"latitude":63.15248681137061},{"passengerTraffic":false,"type":"STATION","stationName":"Sääksjärvi","stationShortCode":"SJ","stationUICCode":157,"countryCode":"FI","longitude":23.75216599514724,"latitude":61.41916455966719},{"passengerTraffic":false,"type":"STATION","stationName":"Taavetti","stationShortCode":"TA","stationUICCode":486,"countryCode":"FI","longitude":27.56110144841827,"latitude":60.91336657435953},{"passengerTraffic":false,"type":"STATION","stationName":"Tahkoluoto","stationShortCode":"TKO","stationUICCode":702,"countryCode":"FI","longitude":21.40736686146288,"latitude":61.63601210394687},{"passengerTraffic":false,"type":"STATION","stationName":"Taipale","stationShortCode":"TE","stationUICCode":1268,"countryCode":"FI","longitude":27.31336536656385,"latitude":63.46079909156709},{"passengerTraffic":false,"type":"STATION","stationName":"Talviainen","stationShortCode":"TV","stationUICCode":1270,"countryCode":"FI","longitude":24.65919739415511,"latitude":61.72539407868312},{"passengerTraffic":false,"type":"STATION","stationName":"Talvivaara","stationShortCode":"TLV","stationUICCode":1323,"countryCode":"FI","longitude":28.03212065058988,"latitude":64.06348968357814},{"passengerTraffic":true,"type":"STOPPING_POINT","stationName":"Tammisaari","stationShortCode":"TMS","stationUICCode":76,"countryCode":"FI","longitude":23.44323767068130,"latitude":59.97950063889355},{"passengerTraffic":true,"type":"STATION","stationName":"Tampere asema","stationShortCode":"TPE","stationUICCode":160,"countryCode":"FI","longitude":23.77342162788567,"latitude":61.49890946135123},{"passengerTraffic":false,"type":"STATION","stationName":"Tampere Järvensivu","stationShortCode":"JVS","stationUICCode":1272,"countryCode":"FI","longitude":23.78514979573341,"latitude":61.49202563104789},{"passengerTraffic":false,"type":"STATION","stationName":"Tampere tavara","stationShortCode":"TPET","stationUICCode":1273,"countryCode":"FI","longitude":23.76731400642552,"latitude":61.47064152122638},{"passengerTraffic":false,"type":"STATION","stationName":"Tampere Viinikka","stationShortCode":"VKA","stationUICCode":1274,"countryCode":"FI","longitude":23.77356463940541,"latitude":61.48102368922519},{"passengerTraffic":true,"type":"STOPPING_POINT","stationName":"Tapanila","stationShortCode":"TNA","stationUICCode":552,"countryCode":"FI","longitude":25.03071948396235,"latitude":60.26420702479582},{"passengerTraffic":false,"type":"STATION","stationName":"Tapavainola","stationShortCode":"TAP","stationUICCode":1276,"countryCode":"FI","longitude":28.09113031713108,"latitude":61.01768067130167},{"passengerTraffic":true,"type":"STOPPING_POINT","stationName":"Tavastila","stationShortCode":"TSL","stationUICCode":837,"countryCode":"FI","longitude":26.95548275926885,"latitude":60.57305836834934},{"passengerTraffic":true,"type":"STOPPING_POINT","stationName":"Tervajoki","stationShortCode":"TK","stationUICCode":294,"countryCode":"FI","longitude":22.17073414643984,"latitude":63.00194473959462},{"passengerTraffic":true,"type":"STATION","stationName":"Tervola","stationShortCode":"TRV","stationUICCode":361,"countryCode":"FI","longitude":24.77278855752522,"latitude":66.08421470784803},{"passengerTraffic":false,"type":"STATION","stationName":"Teuva","stationShortCode":"TUV","stationUICCode":271,"countryCode":"FI","longitude":21.74135924260782,"latitude":62.47591995153594},{"passengerTraffic":false,"type":"STATION","stationName":"Tikkala","stationShortCode":"TKK","stationUICCode":916,"countryCode":"FI","longitude":30.08634923196111,"latitude":62.36581871646109},{"passengerTraffic":false,"type":"STATION","stationName":"Tikkaperä","stationShortCode":"TKP","stationUICCode":1335,"countryCode":"FI","longitude":25.30724887380968,"latitude":64.77091739547652},{"passengerTraffic":true,"type":"STATION","stationName":"Tikkurila asema","stationShortCode":"TKL","stationUICCode":18,"countryCode":"FI","longitude":25.04464998575209,"latitude":60.29250718664419},{"passengerTraffic":false,"type":"STATION","stationName":"Tohmajärvi","stationShortCode":"TOH","stationUICCode":448,"countryCode":"FI","longitude":30.35897021331988,"latitude":62.24426042115103},{"passengerTraffic":true,"type":"STATION","stationName":"Toijala","stationShortCode":"TL","stationUICCode":150,"countryCode":"FI","longitude":23.86082704516266,"latitude":61.17102211681818},{"passengerTraffic":false,"type":"STATION","stationName":"Toivala","stationShortCode":"TOI","stationUICCode":412,"countryCode":"FI","longitude":27.72531400478763,"latitude":62.99715997964513},{"passengerTraffic":true,"type":"STOPPING_POINT","stationName":"Tolsa","stationShortCode":"TOL","stationUICCode":830,"countryCode":"FI","longitude":24.47048980550291,"latitude":60.11764350940003},{"passengerTraffic":false,"type":"STATION","stationName":"Tommola","stationShortCode":"TOM","stationUICCode":1280,"countryCode":"FI","longitude":25.49284350853327,"latitude":60.90702440828843},{"passengerTraffic":false,"type":"STATION","stationName":"Torkkeli","stationShortCode":"TRK","stationUICCode":1283,"countryCode":"FI","longitude":24.54921398150844,"latitude":61.70123328684619},{"passengerTraffic":false,"type":"STATION","stationName":"Tornio asema","stationShortCode":"TOR","stationUICCode":351,"countryCode":"FI","longitude":24.16392752890289,"latitude":65.84821531578108},{"passengerTraffic":true,"type":"STOPPING_POINT","stationName":"Tornio-Itäinen","stationShortCode":"TRI","stationUICCode":1318,"countryCode":"FI","longitude":24.18528739655337,"latitude":65.85313472639608},{"passengerTraffic":false,"type":"STATION","stationName":"Tornio-raja","stationShortCode":"TRR","stationUICCode":678,"countryCode":"FI","longitude":24.15189708240911,"latitude":65.83017741838897},{"passengerTraffic":true,"type":"STOPPING_POINT","stationName":"Tuomarila","stationShortCode":"TRL","stationUICCode":579,"countryCode":"FI","longitude":24.68207090650780,"latitude":60.20609109391904},{"passengerTraffic":false,"type":"STATION","stationName":"Tuomioja","stationShortCode":"TJA","stationUICCode":336,"countryCode":"FI","longitude":25.02849047172136,"latitude":64.61008912772520},{"passengerTraffic":true,"type":"STATION","stationName":"Turenki","stationShortCode":"TU","stationUICCode":44,"countryCode":"FI","longitude":24.63887836230070,"latitude":60.91879508501042},{"passengerTraffic":true,"type":"STATION","stationName":"Turku asema","stationShortCode":"TKU","stationUICCode":130,"countryCode":"FI","longitude":22.25242602684097,"latitude":60.45429919932164},{"passengerTraffic":true,"type":"STATION","stationName":"Turku satama","stationShortCode":"TUS","stationUICCode":135,"countryCode":"FI","longitude":22.22607237177706,"latitude":60.43438623011733},{"passengerTraffic":false,"type":"STATION","stationName":"Turku tavara","stationShortCode":"TKUT","stationUICCode":1285,"countryCode":"FI","longitude":22.23872445858304,"latitude":60.45186668260144},{"passengerTraffic":false,"type":"STATION","stationName":"Tuupovaara","stationShortCode":"TPV","stationUICCode":458,"countryCode":"FI","longitude":30.56186391246152,"latitude":62.52398946648970},{"passengerTraffic":true,"type":"STOPPING_POINT","stationName":"Tuuri","stationShortCode":"TUU","stationUICCode":283,"countryCode":"FI","longitude":23.72227006077193,"latitude":62.60636331264683},{"passengerTraffic":false,"type":"STATION","stationName":"Törmä","stationShortCode":"TÖR","stationUICCode":1287,"countryCode":"FI","longitude":24.62616569934520,"latitude":65.89698227762031},{"passengerTraffic":false,"type":"STATION","stationName":"Törölä","stationShortCode":"TRÄ","stationUICCode":1290,"countryCode":"FI","longitude":27.99222214876633,"latitude":61.00814569166000},{"passengerTraffic":true,"type":"STATION","stationName":"Uimaharju","stationShortCode":"UIM","stationUICCode":465,"countryCode":"FI","longitude":30.24433156563778,"latitude":62.91353091476375},{"passengerTraffic":false,"type":"STATION","stationName":"Urjala","stationShortCode":"UR","stationUICCode":148,"countryCode":"FI","longitude":23.62619765650151,"latitude":61.06394772772573},{"passengerTraffic":true,"type":"STATION","stationName":"Utajärvi","stationShortCode":"UTJ","stationUICCode":376,"countryCode":"FI","longitude":26.41480642912964,"latitude":64.76078870243248},{"passengerTraffic":false,"type":"TURNOUT_IN_THE_OPEN_LINE","stationName":"Utti","stationShortCode":"UTI","stationUICCode":484,"countryCode":"FI","longitude":26.93454061182165,"latitude":60.87796109255598},{"passengerTraffic":false,"type":"STATION","stationName":"Uusikaupunki","stationShortCode":"UKP","stationUICCode":121,"countryCode":"FI","longitude":21.42465988019371,"latitude":60.79764512596154},{"passengerTraffic":true,"type":"STATION","stationName":"Uusikylä","stationShortCode":"UKÄ","stationUICCode":105,"countryCode":"FI","longitude":26.01781345702357,"latitude":60.92812061231976},{"passengerTraffic":false,"type":"STATION","stationName":"Vaajakoski","stationShortCode":"VKO","stationUICCode":245,"countryCode":"FI","longitude":25.88044402345288,"latitude":62.24852088788158},{"passengerTraffic":true,"type":"STATION","stationName":"Vaala","stationShortCode":"VAA","stationUICCode":377,"countryCode":"FI","longitude":26.84413088408356,"latitude":64.55979276258221},{"passengerTraffic":false,"type":"TURNOUT_IN_THE_OPEN_LINE","stationName":"Vaarala","stationShortCode":"VRA","stationUICCode":807,"countryCode":"FI","longitude":25.88117634764135,"latitude":66.52067163421967},{"passengerTraffic":true,"type":"STATION","stationName":"Vaasa","stationShortCode":"VS","stationUICCode":288,"countryCode":"FI","longitude":21.62071823452441,"latitude":63.09904011398429},{"passengerTraffic":false,"type":"STATION","stationName":"Vahojärvi","stationShortCode":"VJR","stationUICCode":214,"countryCode":"FI","longitude":23.23194489492205,"latitude":61.91371213028743},{"passengerTraffic":true,"type":"STATION","stationName":"Vainikkala asema","stationShortCode":"VNA","stationUICCode":492,"countryCode":"FI","longitude":28.30501572053918,"latitude":60.86409576400993},{"passengerTraffic":false,"type":"STATION","stationName":"Vainikkala tavara","stationShortCode":"VNAT","stationUICCode":1292,"countryCode":"FI","longitude":28.28747693926245,"latitude":60.86843119390070},{"passengerTraffic":false,"type":"STATION","stationName":"Vainikkala-raja","stationShortCode":"VNAR","stationUICCode":493,"countryCode":"FI","longitude":28.33900609422173,"latitude":60.85573406804269},{"passengerTraffic":true,"type":"STOPPING_POINT","stationName":"Valimo","stationShortCode":"VMO","stationUICCode":847,"countryCode":"FI","longitude":24.87621205562947,"latitude":60.22221422882959},{"passengerTraffic":false,"type":"STATION","stationName":"Valkeakoski","stationShortCode":"VI","stationUICCode":153,"countryCode":"FI","longitude":24.01712254511414,"latitude":61.27439900045570},{"passengerTraffic":false,"type":"TURNOUT_IN_THE_OPEN_LINE","stationName":"Valkeasuo","stationShortCode":"VSO","stationUICCode":450,"countryCode":"FI","longitude":30.16670691351066,"latitude":62.30565266524748},{"passengerTraffic":false,"type":"STATION","stationName":"Valtimo","stationShortCode":"VLM","stationUICCode":475,"countryCode":"FI","longitude":28.80313500625143,"latitude":63.68780459222580},{"passengerTraffic":true,"type":"STATION","stationName":"Vammala","stationShortCode":"VMA","stationUICCode":176,"countryCode":"FI","longitude":22.88724125154228,"latitude":61.35002719418062},{"passengerTraffic":false,"type":"STATION","stationName":"Vanattara","stationShortCode":"VTR","stationUICCode":1295,"countryCode":"FI","longitude":23.75945665965580,"latitude":61.37130373997569},{"passengerTraffic":true,"type":"STATION","stationName":"Vantaankoski","stationShortCode":"VKS","stationUICCode":839,"countryCode":"FI","longitude":24.84864598174621,"latitude":60.28574967686441},{"passengerTraffic":true,"type":"STATION","stationName":"Varkaus","stationShortCode":"VAR","stationUICCode":432,"countryCode":"FI","longitude":27.87544267561316,"latitude":62.31313946601869},{"passengerTraffic":false,"type":"STATION","stationName":"Vartius","stationShortCode":"VUS","stationUICCode":941,"countryCode":"FI","longitude":29.95098813432552,"latitude":64.54188298664072},{"passengerTraffic":false,"type":"STATION","stationName":"Vartius-raja","stationShortCode":"VUR","stationUICCode":949,"countryCode":"FI","longitude":29.99264294462017,"latitude":64.54762577003268},{"passengerTraffic":false,"type":"STATION","stationName":"Vasikkahaka","stationShortCode":"VKH","stationUICCode":1300,"countryCode":"FI","longitude":24.52503519703851,"latitude":60.14612789173832},{"passengerTraffic":false,"type":"STATION","stationName":"Vaskiluoto","stationShortCode":"VSK","stationUICCode":291,"countryCode":"FI","longitude":21.56328781970748,"latitude":63.09029192835937},{"passengerTraffic":true,"type":"STOPPING_POINT","stationName":"Vehkala","stationShortCode":"VEH","stationUICCode":1337,"countryCode":"FI","longitude":24.85052192755186,"latitude":60.29768130657377},{"passengerTraffic":false,"type":"STATION","stationName":"Venetmäki","stationShortCode":"VKI","stationUICCode":428,"countryCode":"FI","longitude":26.75418597489686,"latitude":62.31009476031169},{"passengerTraffic":false,"type":"STATION","stationName":"Vesanka","stationShortCode":"VN","stationUICCode":239,"countryCode":"FI","longitude":25.55787999329673,"latitude":62.27022461850358},{"passengerTraffic":false,"type":"TURNOUT_IN_THE_OPEN_LINE","stationName":"Viekki","stationShortCode":"VK","stationUICCode":471,"countryCode":"FI","longitude":29.61436119126830,"latitude":63.42282092237496},{"passengerTraffic":false,"type":"TURNOUT_IN_THE_OPEN_LINE","stationName":"Vierumäki","stationShortCode":"VRM","stationUICCode":112,"countryCode":"FI","longitude":25.93372628010860,"latitude":61.10228767488520},{"passengerTraffic":true,"type":"STATION","stationName":"Vihanti","stationShortCode":"VTI","stationUICCode":334,"countryCode":"FI","longitude":24.99420190276330,"latitude":64.48627697621512},{"passengerTraffic":true,"type":"STATION","stationName":"Vihtari","stationShortCode":"VIH","stationUICCode":438,"countryCode":"FI","longitude":29.03152579684432,"latitude":62.38160435649752},{"passengerTraffic":true,"type":"STATION","stationName":"Viiala","stationShortCode":"VIA","stationUICCode":155,"countryCode":"FI","longitude":23.77068020397621,"latitude":61.21217337858867},